[
  {
    "id": 200,
    "project_name": "Tecnocasa Lac 1",
    "brand": "Tecnocasa",
    "city": "Tunis",
    "neighborhood": "Lac 1",
    "latitude": 36.8365,
    "longitude": 10.242,
    "property_type": "Villa",
    "avg_price": 440481,
    "is_competitor": true,
    "total_units": 77,
    "active_listings": 17,
    "sales_last_quarter": 9,
    "market_share_pct": 10.9,
    "risk_score": 45
  },
  {
    "id": 201,
    "project_name": "Tecnocasa Lac 2",
    "brand": "Tecnocasa",
    "city": "Tunis",
    "neighborhood": "Lac 2",
    "latitude": 36.8455,
    "longitude": 10.2735,
    "property_type": "Apartment",
    "avg_price": 367973,
    "is_competitor": true,
    "total_units": 55,
    "active_listings": 11,
    "sales_last_quarter": 4,
    "market_share_pct": 16.7,
    "risk_score": 31
  },
  {
    "id": 202,
    "project_name": "Tecnocasa Jardins de Carthage",
    "brand": "Tecnocasa",
    "city": "Tunis",
    "neighborhood": "Jardins de Carthage",
    "latitude": 36.838,
    "longitude": 10.2205,
    "property_type": "Apartment",
    "avg_price": 338625,
    "is_competitor": true,
    "total_units": 80,
    "active_listings": 13,
    "sales_last_quarter": 8,
    "market_share_pct": 6.4,
    "risk_score": 17
  },
  {
    "id": 203,
    "project_name": "Tecnocasa Menzah 5",
    "brand": "Tecnocasa",
    "city": "Tunis",
    "neighborhood": "El Menzah 5",
    "latitude": 36.8285,
    "longitude": 10.1465,
    "property_type": "Office",
    "avg_price": 278921,
    "is_competitor": true,
    "total_units": 46,
    "active_listings": 45,
    "sales_last_quarter": 22,
    "market_share_pct": 5.8,
    "risk_score": 17
  },
  {
    "id": 204,
    "project_name": "Tecnocasa Menzah 6",
    "brand": "Tecnocasa",
    "city": "Tunis",
    "neighborhood": "El Menzah 6",
    "latitude": 36.834,
    "longitude": 10.152,
    "property_type": "Villa",
    "avg_price": 585123,
    "is_competitor": true,
    "total_units": 48,
    "active_listings": 21,
    "sales_last_quarter": 24,
    "market_share_pct": 19.3,
    "risk_score": 22
  },
  {
    "id": 205,
    "project_name": "Tecnocasa Menzah 7",
    "brand": "Tecnocasa",
    "city": "Ariana",
    "neighborhood": "El Menzah 7",
    "latitude": 36.842,
    "longitude": 10.156,
    "property_type": "Office",
    "avg_price": 264316,
    "is_competitor": true,
    "total_units": 53,
    "active_listings": 37,
    "sales_last_quarter": 13,
    "market_share_pct": 23.6,
    "risk_score": 44
  },
  {
    "id": 206,
    "project_name": "Tecnocasa Menzah 9",
    "brand": "Tecnocasa",
    "city": "Ariana",
    "neighborhood": "El Menzah 9",
    "latitude": 36.85,
    "longitude": 10.148,
    "property_type": "Apartment",
    "avg_price": 275633,
    "is_competitor": true,
    "total_units": 27,
    "active_listings": 12,
    "sales_last_quarter": 20,
    "market_share_pct": 9.3,
    "risk_score": 23
  },
  {
    "id": 207,
    "project_name": "Tecnocasa Ennasr 1",
    "brand": "Tecnocasa",
    "city": "Ariana",
    "neighborhood": "Ennasr 1",
    "latitude": 36.853,
    "longitude": 10.1665,
    "property_type": "Villa",
    "avg_price": 387672,
    "is_competitor": true,
    "total_units": 23,
    "active_listings": 23,
    "sales_last_quarter": 14,
    "market_share_pct": 10.7,
    "risk_score": 29
  },
  {
    "id": 208,
    "project_name": "Tecnocasa Ennasr 2",
    "brand": "Tecnocasa",
    "city": "Ariana",
    "neighborhood": "Ennasr 2",
    "latitude": 36.861,
    "longitude": 10.162,
    "property_type": "Villa",
    "avg_price": 497475,
    "is_competitor": true,
    "total_units": 16,
    "active_listings": 43,
    "sales_last_quarter": 12,
    "market_share_pct": 23.6,
    "risk_score": 18
  },
  {
    "id": 209,
    "project_name": "Tecnocasa La Soukra",
    "brand": "Tecnocasa",
    "city": "Ariana",
    "neighborhood": "La Soukra",
    "latitude": 36.8755,
    "longitude": 10.217,
    "property_type": "Villa",
    "avg_price": 224450,
    "is_competitor": true,
    "total_units": 28,
    "active_listings": 43,
    "sales_last_quarter": 7,
    "market_share_pct": 10.4,
    "risk_score": 34
  },
  {
    "id": 210,
    "project_name": "Tecnocasa Ariana Ville",
    "brand": "Tecnocasa",
    "city": "Ariana",
    "neighborhood": "Ariana Ville",
    "latitude": 36.8625,
    "longitude": 10.193,
    "property_type": "Villa",
    "avg_price": 267326,
    "is_competitor": true,
    "total_units": 48,
    "active_listings": 40,
    "sales_last_quarter": 18,
    "market_share_pct": 10.0,
    "risk_score": 44
  },
  {
    "id": 211,
    "project_name": "Tecnocasa La Marsa",
    "brand": "Tecnocasa",
    "city": "La Marsa",
    "neighborhood": "La Marsa Centre",
    "latitude": 36.878,
    "longitude": 10.325,
    "property_type": "Apartment",
    "avg_price": 340800,
    "is_competitor": true,
    "total_units": 69,
    "active_listings": 25,
    "sales_last_quarter": 4,
    "market_share_pct": 5.1,
    "risk_score": 39
  },
  {
    "id": 212,
    "project_name": "Tecnocasa Gammarth",
    "brand": "Tecnocasa",
    "city": "La Marsa",
    "neighborhood": "Gammarth",
    "latitude": 36.912,
    "longitude": 10.288,
    "property_type": "Villa",
    "avg_price": 261450,
    "is_competitor": true,
    "total_units": 71,
    "active_listings": 43,
    "sales_last_quarter": 25,
    "market_share_pct": 13.6,
    "risk_score": 15
  },
  {
    "id": 213,
    "project_name": "Tecnocasa Ain Zaghouan",
    "brand": "Tecnocasa",
    "city": "Tunis",
    "neighborhood": "Ain Zaghouan Nord",
    "latitude": 36.816,
    "longitude": 10.192,
    "property_type": "Apartment",
    "avg_price": 438960,
    "is_competitor": true,
    "total_units": 34,
    "active_listings": 42,
    "sales_last_quarter": 4,
    "market_share_pct": 21.7,
    "risk_score": 33
  },
  {
    "id": 214,
    "project_name": "Tecnocasa Montplaisir",
    "brand": "Tecnocasa",
    "city": "Tunis",
    "neighborhood": "Montplaisir",
    "latitude": 36.8045,
    "longitude": 10.174,
    "property_type": "Apartment",
    "avg_price": 475281,
    "is_competitor": true,
    "total_units": 31,
    "active_listings": 10,
    "sales_last_quarter": 12,
    "market_share_pct": 12.3,
    "risk_score": 44
  },
  {
    "id": 215,
    "project_name": "Tecnocasa Manar",
    "brand": "Tecnocasa",
    "city": "Tunis",
    "neighborhood": "El Manar",
    "latitude": 36.821,
    "longitude": 10.154,
    "property_type": "Villa",
    "avg_price": 245499,
    "is_competitor": true,
    "total_units": 46,
    "active_listings": 14,
    "sales_last_quarter": 14,
    "market_share_pct": 20.6,
    "risk_score": 43
  },
  {
    "id": 216,
    "project_name": "Tecnocasa Centre Ville",
    "brand": "Tecnocasa",
    "city": "Tunis",
    "neighborhood": "Centre Ville",
    "latitude": 36.799,
    "longitude": 10.17,
    "property_type": "Apartment",
    "avg_price": 578816,
    "is_competitor": true,
    "total_units": 45,
    "active_listings": 18,
    "sales_last_quarter": 8,
    "market_share_pct": 22.6,
    "risk_score": 15
  },
  {
    "id": 217,
    "project_name": "Tecnocasa Mourouj",
    "brand": "Tecnocasa",
    "city": "Ben Arous",
    "neighborhood": "El Mourouj 6",
    "latitude": 36.734,
    "longitude": 10.188,
    "property_type": "Villa",
    "avg_price": 260370,
    "is_competitor": true,
    "total_units": 67,
    "active_listings": 23,
    "sales_last_quarter": 11,
    "market_share_pct": 8.2,
    "risk_score": 37
  },
  {
    "id": 218,
    "project_name": "Tecnocasa Ben Arous",
    "brand": "Tecnocasa",
    "city": "Ben Arous",
    "neighborhood": "Ben Arous Ville",
    "latitude": 36.753,
    "longitude": 10.228,
    "property_type": "Office",
    "avg_price": 255415,
    "is_competitor": true,
    "total_units": 19,
    "active_listings": 38,
    "sales_last_quarter": 10,
    "market_share_pct": 9.0,
    "risk_score": 44
  },
  {
    "id": 219,
    "project_name": "Tecnocasa Sousse Centre",
    "brand": "Tecnocasa",
    "city": "Sousse",
    "neighborhood": "Centre Ville",
    "latitude": 35.8285,
    "longitude": 10.638,
    "property_type": "Villa",
    "avg_price": 338515,
    "is_competitor": true,
    "total_units": 44,
    "active_listings": 22,
    "sales_last_quarter": 3,
    "market_share_pct": 18.2,
    "risk_score": 27
  },
  {
    "id": 220,
    "project_name": "Tecnocasa Sousse Jawhara",
    "brand": "Tecnocasa",
    "city": "Sousse",
    "neighborhood": "Jawhara",
    "latitude": 35.837,
    "longitude": 10.593,
    "property_type": "Villa",
    "avg_price": 430560,
    "is_competitor": true,
    "total_units": 23,
    "active_listings": 25,
    "sales_last_quarter": 14,
    "market_share_pct": 17.8,
    "risk_score": 27
  },
  {
    "id": 221,
    "project_name": "Tecnocasa Sahloul",
    "brand": "Tecnocasa",
    "city": "Sousse",
    "neighborhood": "Sahloul",
    "latitude": 35.8445,
    "longitude": 10.585,
    "property_type": "Villa",
    "avg_price": 551520,
    "is_competitor": true,
    "total_units": 18,
    "active_listings": 15,
    "sales_last_quarter": 11,
    "market_share_pct": 8.6,
    "risk_score": 45
  },
  {
    "id": 222,
    "project_name": "Tecnocasa Hammam Sousse",
    "brand": "Tecnocasa",
    "city": "Sousse",
    "neighborhood": "Hammam Sousse",
    "latitude": 35.858,
    "longitude": 10.575,
    "property_type": "Apartment",
    "avg_price": 230142,
    "is_competitor": true,
    "total_units": 70,
    "active_listings": 30,
    "sales_last_quarter": 13,
    "market_share_pct": 13.7,
    "risk_score": 31
  },
  {
    "id": 223,
    "project_name": "Tecnocasa Kantaoui",
    "brand": "Tecnocasa",
    "city": "Sousse",
    "neighborhood": "Port El Kantaoui",
    "latitude": 35.893,
    "longitude": 10.593,
    "property_type": "Office",
    "avg_price": 336141,
    "is_competitor": true,
    "total_units": 39,
    "active_listings": 24,
    "sales_last_quarter": 4,
    "market_share_pct": 19.2,
    "risk_score": 15
  },
  {
    "id": 224,
    "project_name": "Tecnocasa Sfax Centre",
    "brand": "Tecnocasa",
    "city": "Sfax",
    "neighborhood": "Centre Ville",
    "latitude": 34.739,
    "longitude": 10.76,
    "property_type": "Apartment",
    "avg_price": 204512,
    "is_competitor": true,
    "total_units": 70,
    "active_listings": 12,
    "sales_last_quarter": 24,
    "market_share_pct": 23.4,
    "risk_score": 34
  },
  {
    "id": 225,
    "project_name": "Tecnocasa Sfax Ennasria",
    "brand": "Tecnocasa",
    "city": "Sfax",
    "neighborhood": "Ennasria",
    "latitude": 34.751,
    "longitude": 10.74,
    "property_type": "Apartment",
    "avg_price": 216452,
    "is_competitor": true,
    "total_units": 53,
    "active_listings": 40,
    "sales_last_quarter": 12,
    "market_share_pct": 18.3,
    "risk_score": 25
  },
  {
    "id": 226,
    "project_name": "Tecnocasa Sfax Gremda",
    "brand": "Tecnocasa",
    "city": "Sfax",
    "neighborhood": "Route de Gremda",
    "latitude": 34.718,
    "longitude": 10.715,
    "property_type": "Villa",
    "avg_price": 211280,
    "is_competitor": true,
    "total_units": 31,
    "active_listings": 20,
    "sales_last_quarter": 16,
    "market_share_pct": 18.3,
    "risk_score": 27
  },
  {
    "id": 227,
    "project_name": "Tecnocasa Hammamet",
    "brand": "Tecnocasa",
    "city": "Hammamet",
    "neighborhood": "Centre Ville",
    "latitude": 36.4,
    "longitude": 10.617,
    "property_type": "Villa",
    "avg_price": 247520,
    "is_competitor": true,
    "total_units": 15,
    "active_listings": 27,
    "sales_last_quarter": 12,
    "market_share_pct": 9.2,
    "risk_score": 40
  },
  {
    "id": 228,
    "project_name": "Tecnocasa Nabeul",
    "brand": "Tecnocasa",
    "city": "Nabeul",
    "neighborhood": "Centre Ville",
    "latitude": 36.455,
    "longitude": 10.731,
    "property_type": "Villa",
    "avg_price": 407175,
    "is_competitor": true,
    "total_units": 71,
    "active_listings": 36,
    "sales_last_quarter": 24,
    "market_share_pct": 9.3,
    "risk_score": 30
  },
  {
    "id": 229,
    "project_name": "Tecnocasa Yasmine Hammamet",
    "brand": "Tecnocasa",
    "city": "Hammamet",
    "neighborhood": "Yasmine",
    "latitude": 36.379,
    "longitude": 10.56,
    "property_type": "Apartment",
    "avg_price": 225810,
    "is_competitor": true,
    "total_units": 80,
    "active_listings": 29,
    "sales_last_quarter": 5,
    "market_share_pct": 21.4,
    "risk_score": 39
  }
]