project_id,project_name,city,neighborhood,latitude,longitude,property_type,quality_tier,launch_date,total_units,avg_price,total_leads,qualified_leads,qualified_lead_rate,visits,reservations,sales,spend,cpl,cpql,lead_to_visit_rate,visit_to_reservation_rate,reservation_to_sale_rate,revenue,avg_sale_price,unsold_inventory,sell_through_rate
P0200,Ennasr Business Homes,Ariana,Ennasr,36.861682,10.147474,Office,average,2025-04-28,108,231000,563,212,0.3765541740674956,131,43,21.0,33622.97,59.721083481349915,158.59891509433962,0.23268206039076378,0.3282442748091603,0.4883720930232558,4632143.83,220578.2776190476,87.0,0.19444444444444445
P0146,Ennasr Business Terraces,Ariana,Ennasr,36.858694,10.154619,Office,average,2025-02-19,118,234000,753,288,0.38247011952191234,199,54,31.0,43579.5,57.874501992031874,151.31770833333334,0.2642762284196547,0.271356783919598,0.5740740740740741,6766653.64,218279.14967741934,87.0,0.2627118644067797
P0182,Ennasr Compact Heights,Ariana,Ennasr,36.863836,10.158998,Studio,average,2025-06-04,174,148000,718,292,0.40668523676880225,173,65,31.0,46834.24,65.22874651810585,160.3912328767123,0.24094707520891365,0.37572254335260113,0.47692307692307695,4341289.2,140041.5870967742,143.0,0.1781609195402299
P0173,Ennasr Compact Terraces,Ariana,Ennasr,36.864731,10.154716,Studio,strong,2025-01-27,67,267000,1672,756,0.45215311004784686,521,205,67.0,86302.45,51.61629784688995,114.15667989417989,0.3116028708133971,0.3934740882917466,0.32682926829268294,16888185.01,252062.46283582092,0.0,1.0
P0188,Ennasr Compact Vista,Ariana,Ennasr,36.86047,10.161841,Studio,average,2025-02-13,128,178000,1080,436,0.40370370370370373,286,82,44.0,63876.9,59.14527777777778,146.5066513761468,0.26481481481481484,0.2867132867132867,0.5365853658536586,7395521.97,168080.04477272727,84.0,0.34375
P0125,Ennasr Signature Heights,Ariana,Ennasr,36.861139,10.15205,Villa,average,2025-04-27,64,453000,513,96,0.1871345029239766,99,18,9.0,38491.5,75.03216374269006,400.953125,0.19298245614035087,0.18181818181818182,0.5,3897231.36,433025.70666666667,55.0,0.140625
P0135,Ennasr Signature Living,Ariana,Ennasr,36.866712,10.148379,Villa,strong,2025-06-01,48,362000,775,241,0.3109677419354839,201,73,31.0,43595.08,56.25171612903226,180.8924481327801,0.2593548387096774,0.36318407960199006,0.4246575342465753,10587294.13,341525.6170967742,17.0,0.6458333333333334
P0151,Ennasr Signature Residences,Ariana,Ennasr,36.858474,10.153956,Villa,strong,2025-02-22,103,306000,1196,508,0.42474916387959866,341,129,88.0,59835.57,50.02974080267558,117.78655511811023,0.28511705685618727,0.3782991202346041,0.6821705426356589,25337723.21,287928.6728409091,15.0,0.8543689320388349
P0179,Ennasr Signature Residences,Ariana,Ennasr,36.86092,10.159019,Villa,average,2025-02-06,74,496000,585,95,0.1623931623931624,101,18,8.0,48240.49,82.46237606837606,507.79463157894736,0.17264957264957265,0.1782178217821782,0.4444444444444444,3682737.4899999998,460342.18624999997,66.0,0.10810810810810811
P0199,Ennasr Signature Residences,Ariana,Ennasr,36.863667,10.159887,Villa,weak,2025-04-19,39,324000,392,110,0.28061224489795916,82,16,4.0,31263.99,79.75507653061224,284.2180909090909,0.20918367346938777,0.1951219512195122,0.25,1215925.28,303981.32,35.0,0.10256410256410256
P0127,Ennasr Urban Homes,Ariana,Ennasr,36.862237,10.15476,Apartment,average,2025-06-05,227,225000,690,294,0.4260869565217391,182,55,34.0,41644.14,60.35382608695652,141.64673469387756,0.263768115942029,0.3021978021978022,0.6181818181818182,7306598.13,214899.945,193.0,0.14977973568281938
P0132,Ennasr Urban Living,Ariana,Ennasr,36.861277,10.155155,Apartment,average,2025-01-05,162,337000,1153,355,0.30789245446660884,254,71,29.0,70660.77,61.28427580225499,199.04442253521128,0.22029488291413704,0.2795275590551181,0.4084507042253521,9312156.03,321108.82862068963,133.0,0.17901234567901234
P0152,Ennasr Urban Living,Ariana,Ennasr,36.862396,10.154432,Apartment,weak,2025-02-18,166,211000,706,215,0.3045325779036827,128,26,7.0,50495.05,71.52273371104816,234.86069767441862,0.1813031161473088,0.203125,0.2692307692307692,1409148.98,201306.99714285714,159.0,0.04216867469879518
P0124,Ennasr Urban Park,Ariana,Ennasr,36.859404,10.149052,Apartment,average,2025-03-07,105,155000,1062,403,0.3794726930320151,258,87,45.0,63676.85,59.95936911487759,158.00707196029776,0.24293785310734464,0.3372093023255814,0.5172413793103449,6526977.11,145043.93577777778,60.0,0.42857142857142855
P0197,Ennasr Urban Park,Ariana,Ennasr,36.861498,10.144405,Apartment,average,2025-04-25,118,331000,986,321,0.3255578093306288,237,75,41.0,58411.11,59.24047667342799,181.96607476635515,0.24036511156186613,0.31645569620253167,0.5466666666666666,12690682.85,309528.85,77.0,0.3474576271186441
P0129,Ennasr Urban Residences,Ariana,Ennasr,36.856458,10.155205,Apartment,average,2025-04-12,220,316000,900,305,0.3388888888888889,223,59,28.0,54432.52,60.480577777777775,178.46727868852457,0.2477777777777778,0.2645739910313901,0.4745762711864407,8339043.23,297822.97250000003,192.0,0.12727272727272726
P0139,Ennasr Urban Residences,Ariana,Ennasr,36.86312,10.162958,Apartment,average,2025-04-25,89,234000,892,361,0.4047085201793722,212,65,29.0,47185.38,52.898408071748875,130.70742382271467,0.23766816143497757,0.30660377358490565,0.4461538461538462,6432227.31,221800.94172413793,60.0,0.3258426966292135
P0159,Ennasr Urban Residences,Ariana,Ennasr,36.867514,10.165698,Apartment,average,2025-04-11,107,206000,952,385,0.40441176470588236,237,75,42.0,56716.57,59.576228991596636,147.31576623376623,0.24894957983193278,0.31645569620253167,0.56,8188447.46,194963.03476190477,65.0,0.3925233644859813
P0177,Ennasr Urban Residences,Ariana,Ennasr,36.857404,10.149247,Apartment,average,2025-04-08,179,338000,974,293,0.3008213552361396,223,56,25.0,57062.18,58.58540041067762,194.7514675767918,0.22895277207392198,0.25112107623318386,0.44642857142857145,7984055.72,319362.2288,154.0,0.13966480446927373
P0180,Ennasr Urban Residences,Ariana,Ennasr,36.871009,10.157053,Apartment,average,2025-02-06,205,191000,1116,432,0.3870967741935484,264,67,42.0,66707.85,59.77405913978495,154.41631944444447,0.23655913978494625,0.2537878787878788,0.6268656716417911,7604932.84,181069.82952380952,163.0,0.2048780487804878
P0190,Ennasr Urban Residences,Ariana,Ennasr,36.869215,10.151617,Apartment,average,2025-05-06,135,176000,815,330,0.4049079754601227,194,65,35.0,46673.76,57.26841717791411,141.43563636363638,0.23803680981595093,0.33505154639175255,0.5384615384615384,5823377.77,166382.22199999998,100.0,0.25925925925925924
P0147,Ennasr Urban Suites,Ariana,Ennasr,36.868334,10.152195,Apartment,strong,2025-04-01,226,450000,1207,321,0.2659486329743165,276,77,39.0,74507.07,61.729138359569184,232.10925233644863,0.22866611433305717,0.27898550724637683,0.5064935064935064,16663954.34,427280.8805128205,187.0,0.17256637168141592
P0136,Ennasr Urban Terraces,Ariana,Ennasr,36.857626,10.163046,Apartment,average,2025-04-01,143,188000,863,336,0.38933951332560834,209,70,36.0,52562.15,60.906315179606025,156.43497023809525,0.2421784472769409,0.3349282296650718,0.5142857142857142,6414106.47,178169.62416666665,107.0,0.2517482517482518
P0137,Ennasr Urban Terraces,Ariana,Ennasr,36.863527,10.16504,Apartment,average,2025-06-04,190,387000,651,160,0.2457757296466974,127,34,14.0,42914.74,65.92125960061443,268.217125,0.19508448540706605,0.2677165354330709,0.4117647058823529,5128566.11,366326.15071428573,176.0,0.07368421052631578
P0185,Ennasr Urban Terraces,Ariana,Ennasr,36.860301,10.150013,Apartment,average,2025-02-21,154,304000,1065,354,0.3323943661971831,258,66,36.0,69194.1,64.97098591549296,195.46355932203392,0.24225352112676057,0.2558139534883721,0.5454545454545454,10295194.45,285977.6236111111,118.0,0.23376623376623376
P0140,Ennasr Urban Vista,Ariana,Ennasr,36.854955,10.158705,Apartment,strong,2025-03-19,207,263000,1450,640,0.4413793103448276,456,188,113.0,72216.06,49.80417931034483,112.83759375,0.31448275862068964,0.41228070175438597,0.601063829787234,27938459.85,247243.0075221239,94.0,0.5458937198067633
P0172,Menzah 6 Business Heights,Ariana,Menzah 6,36.857229,10.160929,Office,average,2025-01-18,90,326000,790,239,0.30253164556962026,181,37,22.0,49596.57,62.78046835443038,207.51702928870293,0.2291139240506329,0.20441988950276244,0.5945945945945946,6718071.140000001,305366.87000000005,68.0,0.24444444444444444
P0191,Menzah 6 Business Heights,Ariana,Menzah 6,36.859366,10.171888,Office,average,2025-01-13,55,305000,801,293,0.365792759051186,179,56,26.0,49993.44,62.41378277153559,170.62607508532423,0.22347066167290885,0.3128491620111732,0.4642857142857143,7493116.37,288196.7834615385,29.0,0.4727272727272727
P0141,Menzah 6 Business Residences,Ariana,Menzah 6,36.847895,10.171545,Office,average,2025-05-11,104,253000,590,241,0.40847457627118644,155,35,21.0,33574.03,56.905135593220336,139.31132780082987,0.2627118644067797,0.22580645161290322,0.6,4952409.51,235829.0242857143,83.0,0.20192307692307693
P0171,Menzah 6 Business Vista,Ariana,Menzah 6,36.855686,10.170368,Office,weak,2025-02-22,106,323000,508,127,0.25,76,15,4.0,37539.48,73.89661417322836,295.58645669291343,0.14960629921259844,0.19736842105263158,0.26666666666666666,1157383.4,289345.85,102.0,0.03773584905660377
P0183,Menzah 6 Compact Park,Ariana,Menzah 6,36.851543,10.165737,Studio,average,2025-04-13,142,224000,815,315,0.38650306748466257,203,57,29.0,49922.46,61.25455214723926,158.484,0.249079754601227,0.28078817733990147,0.5087719298245614,6178413.94,213048.75655172416,113.0,0.20422535211267606
P0186,Menzah 6 Compact Terraces,Ariana,Menzah 6,36.849451,10.172012,Studio,weak,2025-05-06,131,190000,585,192,0.3282051282051282,120,29,9.0,40687.55,69.55136752136752,211.9143229166667,0.20512820512820512,0.24166666666666667,0.3103448275862069,1612324.11,179147.12333333335,122.0,0.06870229007633588
P0184,Menzah 6 Compact Vista,Ariana,Menzah 6,36.849188,10.162701,Studio,weak,2025-03-13,94,112000,694,246,0.35446685878962536,125,23,10.0,48087.07,69.28972622478386,195.47589430894308,0.18011527377521613,0.184,0.43478260869565216,1071593.69,107159.36899999999,84.0,0.10638297872340426
P0193,Menzah 6 Signature Vista,Ariana,Menzah 6,36.858939,10.168917,Villa,weak,2025-03-18,62,350000,455,107,0.23516483516483516,69,19,7.0,35032.49,76.99448351648351,327.4064485981308,0.15164835164835164,0.2753623188405797,0.3684210526315789,2313443.04,330491.86285714287,55.0,0.11290322580645161
P0123,Menzah 6 Urban Gardens,Ariana,Menzah 6,36.849427,10.164238,Apartment,average,2025-03-19,192,322000,931,307,0.3297529538131042,217,51,30.0,59932.43,64.37425349087003,195.21964169381107,0.23308270676691728,0.2350230414746544,0.5882352941176471,9082751.2,302758.3733333333,162.0,0.15625
P0166,Menzah 6 Urban Gardens,Ariana,Menzah 6,36.851984,10.16662,Apartment,average,2025-01-13,98,333000,1144,340,0.2972027972027972,247,71,27.0,74530.24,65.1488111888112,219.20658823529413,0.2159090909090909,0.2874493927125506,0.38028169014084506,8509246.43,315157.2751851852,71.0,0.2755102040816326
P0164,Menzah 6 Urban Homes,Ariana,Menzah 6,36.847746,10.159461,Apartment,strong,2025-01-10,224,220000,1720,784,0.4558139534883721,512,202,142.0,87343.64,50.78118604651163,111.40770408163266,0.29767441860465116,0.39453125,0.7029702970297029,29563399.88,208192.95690140844,82.0,0.6339285714285714
P0121,Menzah 6 Urban Living,Ariana,Menzah 6,36.851499,10.156238,Apartment,strong,2025-05-07,136,276000,1258,540,0.4292527821939587,382,160,99.0,60478.79,48.07534976152623,111.99775925925925,0.3036565977742448,0.418848167539267,0.61875,25744683.55,260047.30858585858,37.0,0.7279411764705882
P0156,Menzah 6 Urban Living,Ariana,Menzah 6,36.851371,10.164198,Apartment,strong,2025-03-29,195,435000,1227,293,0.23879380603096984,289,88,40.0,74376.58,60.61660961695192,253.84498293515358,0.23553382233088835,0.3044982698961938,0.45454545454545453,16443794.77,411094.86925,155.0,0.20512820512820512
P0160,Menzah 6 Urban Living,Ariana,Menzah 6,36.853336,10.158631,Apartment,strong,2025-03-08,188,232000,1556,750,0.4820051413881748,460,195,127.0,78406.37,50.38969794344473,104.54182666666667,0.29562982005141386,0.42391304347826086,0.6512820512820513,27837656.94,219194.14913385827,61.0,0.675531914893617
P0192,Menzah 6 Urban Living,Ariana,Menzah 6,36.858232,10.163904,Apartment,strong,2025-02-25,176,255000,1599,763,0.47717323327079425,472,169,100.0,77891.94,48.712908067542216,102.08642201834863,0.2951844903064415,0.3580508474576271,0.591715976331361,24177334.8,241773.348,76.0,0.5681818181818182
P0167,Menzah 6 Urban Park,Ariana,Menzah 6,36.856461,10.156877,Apartment,weak,2025-04-07,228,204000,617,218,0.353322528363047,120,33,12.0,45232.15,73.30980551053484,207.4869266055046,0.19448946515397084,0.275,0.36363636363636365,2277452.76,189787.72999999998,216.0,0.05263157894736842
P0122,Menzah 6 Urban Suites,Ariana,Menzah 6,36.845708,10.170861,Apartment,average,2025-04-27,157,198000,839,319,0.3802145411203814,216,58,30.0,50499.62,60.19025029797378,158.30601880877742,0.25744934445768775,0.26851851851851855,0.5172413793103449,5588208.42,186273.614,127.0,0.1910828025477707
P0149,Menzah 6 Urban Suites,Ariana,Menzah 6,36.858119,10.164184,Apartment,average,2025-01-22,188,301000,1267,431,0.34017363851617993,302,90,50.0,72622.79,57.31869771112864,168.49835266821344,0.23835832675611682,0.2980132450331126,0.5555555555555556,14186903.48,283738.0696,138.0,0.26595744680851063
P0194,Menzah 6 Urban Suites,Ariana,Menzah 6,36.851042,10.17277,Apartment,average,2025-05-15,99,324000,853,255,0.2989449003516999,191,48,25.0,51100.05,59.906271981242675,200.39235294117648,0.223915592028136,0.2513089005235602,0.5208333333333334,7553844.25,302153.77,74.0,0.25252525252525254
P0195,Menzah 6 Urban Suites,Ariana,Menzah 6,36.85326,10.164776,Apartment,average,2025-03-24,169,310000,979,333,0.34014300306435136,244,73,34.0,56614.0,57.828396322778346,170.012012012012,0.24923391215526047,0.29918032786885246,0.4657534246575342,9921817.22,291818.15352941176,135.0,0.20118343195266272
P0145,Mnihla Business Terraces,Ariana,Mnihla,36.837849,10.075215,Office,weak,2025-02-13,68,226000,501,158,0.3153692614770459,96,20,10.0,35395.28,70.64926147704591,224.02075949367088,0.19161676646706588,0.20833333333333334,0.5,2121148.74,212114.874,58.0,0.14705882352941177
P0148,Mnihla Business Vista,Ariana,Mnihla,36.833868,10.075415,Office,average,2025-02-10,83,364000,704,223,0.31676136363636365,149,43,19.0,46529.39,66.09288352272728,208.6519730941704,0.21164772727272727,0.28859060402684567,0.4418604651162791,6539961.57,344208.50368421053,64.0,0.2289156626506024
P0175,Mnihla Signature Residences,Ariana,Mnihla,36.836366,10.076735,Villa,strong,2025-02-05,103,326000,1162,470,0.4044750430292599,335,109,65.0,60559.67,52.11675559380379,128.85036170212766,0.2882960413080895,0.3253731343283582,0.5963302752293578,20031596.13,308178.402,38.0,0.6310679611650486
P0150,Mnihla Signature Suites,Ariana,Mnihla,36.837171,10.085684,Villa,weak,2025-03-29,33,306000,475,136,0.2863157894736842,71,11,5.0,35752.94,75.26934736842105,262.8892647058824,0.14947368421052631,0.15492957746478872,0.45454545454545453,1443546.8599999999,288709.372,28.0,0.15151515151515152
P0165,Mnihla Signature Terraces,Ariana,Mnihla,36.834115,10.075996,Villa,average,2025-05-03,51,365000,557,150,0.26929982046678635,104,29,12.0,38597.06,69.29454219030521,257.31373333333335,0.1867145421903052,0.27884615384615385,0.41379310344827586,4115345.8,342945.48333333334,39.0,0.23529411764705882
P0198,Mnihla Signature Terraces,Ariana,Mnihla,36.833481,10.078711,Villa,average,2025-04-05,65,384000,653,167,0.2557427258805513,139,37,18.0,42029.67,64.36396630934149,251.67467065868263,0.21286370597243492,0.26618705035971224,0.4864864864864865,6440035.04,357779.72444444447,47.0,0.27692307692307694
P0142,Mnihla Urban Gardens,Ariana,Mnihla,36.837865,10.071109,Apartment,average,2025-01-11,217,264000,1329,516,0.38826185101580135,344,113,63.0,75791.45,57.02893152746426,146.88265503875968,0.2588412340105342,0.32848837209302323,0.5575221238938053,15663772.39,248631.30777777778,154.0,0.2903225806451613
P0169,Mnihla Urban Gardens,Ariana,Mnihla,36.834964,10.07628,Apartment,strong,2025-04-04,123,264000,1478,672,0.4546684709066306,496,198,123.0,72686.0,49.17861975642761,108.16369047619048,0.33558863328822736,0.39919354838709675,0.6212121212121212,30649798.55,249185.35406504065,0.0,1.0
P0158,Mnihla Urban Heights,Ariana,Mnihla,36.842074,10.081058,Apartment,average,2025-04-15,156,229000,995,396,0.39798994974874374,269,89,43.0,54714.4,54.98934673366834,138.16767676767677,0.27035175879396983,0.3308550185873606,0.48314606741573035,9323591.0,216827.6976744186,113.0,0.27564102564102566
P0133,Mnihla Urban Homes,Ariana,Mnihla,36.820875,10.084467,Apartment,average,2025-03-26,150,285000,943,345,0.36585365853658536,241,70,34.0,56968.52,60.412004241781545,165.12614492753622,0.25556733828207845,0.29045643153526973,0.4857142857142857,9116605.76,268135.46352941176,116.0,0.22666666666666666
P0174,Mnihla Urban Homes,Ariana,Mnihla,36.826777,10.074353,Apartment,average,2025-04-10,220,321000,883,302,0.3420158550396376,204,66,32.0,56394.71,63.867168742921855,186.7374503311258,0.23103057757644394,0.3235294117647059,0.48484848484848486,9690844.45,302838.8890625,188.0,0.14545454545454545
P0130,Mnihla Urban Living,Ariana,Mnihla,36.835738,10.080556,Apartment,weak,2025-05-28,153,264000,521,164,0.31477927063339733,101,25,6.0,35275.45,67.70719769673704,215.09420731707314,0.19385796545105566,0.24752475247524752,0.24,1509071.05,251511.84166666667,147.0,0.0392156862745098
P0153,Mnihla Urban Living,Ariana,Mnihla,36.835672,10.079591,Apartment,strong,2025-01-08,226,209000,1596,721,0.4517543859649123,515,216,147.0,86526.51,54.21460526315789,120.00902912621359,0.3226817042606516,0.41941747572815535,0.6805555555555556,29001791.88,197291.1012244898,79.0,0.6504424778761062
P0170,Mnihla Urban Living,Ariana,Mnihla,36.834499,10.071861,Apartment,average,2025-05-02,90,245000,871,335,0.38461538461538464,205,57,33.0,52840.34,60.66629161882893,157.73235820895522,0.23536165327210104,0.2780487804878049,0.5789473684210527,7620945.33,230937.73727272727,57.0,0.36666666666666664
P0187,Mnihla Urban Park,Ariana,Mnihla,36.835058,10.082689,Apartment,average,2025-04-29,133,193000,828,313,0.3780193236714976,227,66,35.0,51180.95,61.812741545893715,163.51741214057506,0.2741545893719807,0.2907488986784141,0.5303030303030303,6404051.97,182972.91342857142,98.0,0.2631578947368421
P0181,Mnihla Urban Residences,Ariana,Mnihla,36.836196,10.085093,Apartment,strong,2025-05-16,108,384000,1038,321,0.3092485549132948,246,74,37.0,58375.06,56.238015414258186,181.85376947040498,0.23699421965317918,0.3008130081300813,0.5,13408655.46,362396.09351351357,71.0,0.3425925925925926
P0201,Mnihla Urban Residences,Ariana,Mnihla,36.84003,10.08281,Apartment,weak,2025-02-16,192,153000,679,224,0.32989690721649484,121,36,9.0,51263.11,75.4979528718704,228.85316964285715,0.17820324005891017,0.2975206611570248,0.25,1287972.3,143108.03333333333,183.0,0.046875
P0204,Mnihla Urban Residences,Ariana,Mnihla,36.836541,10.080037,Apartment,strong,2025-06-06,198,314000,976,393,0.4026639344262295,268,98,58.0,53805.32,55.12840163934426,136.90921119592875,0.27459016393442626,0.3656716417910448,0.5918367346938775,17170133.8,296036.78965517244,140.0,0.29292929292929293
P0134,Mnihla Urban Suites,Ariana,Mnihla,36.833068,10.068105,Apartment,weak,2025-02-19,213,213000,714,237,0.3319327731092437,147,37,14.0,51034.45,71.47682072829132,215.33523206751053,0.20588235294117646,0.25170068027210885,0.3783783783783784,2789889.1,199277.79285714286,199.0,0.06572769953051644
P0138,Mnihla Urban Suites,Ariana,Mnihla,36.83182,10.07322,Apartment,weak,2025-05-01,171,185000,580,202,0.3482758620689655,105,25,11.0,40749.9,70.25844827586207,201.7321782178218,0.1810344827586207,0.23809523809523808,0.44,1902165.99,172924.1809090909,160.0,0.06432748538011696
P0131,Mnihla Urban Terraces,Ariana,Mnihla,36.83784,10.075374,Apartment,average,2025-01-01,136,202000,1285,518,0.4031128404669261,347,108,52.0,74068.47,57.6408326848249,142.98932432432431,0.27003891050583656,0.3112391930835735,0.48148148148148145,9891145.78,190214.34192307692,84.0,0.38235294117647056
P0203,Mnihla Urban Terraces,Ariana,Mnihla,36.843043,10.078587,Apartment,strong,2025-01-31,236,234000,1685,771,0.457566765578635,522,215,124.0,83790.86,49.727513353115725,108.67815823605707,0.30979228486646887,0.4118773946360153,0.5767441860465117,27400760.86,220973.8779032258,112.0,0.5254237288135594
P0143,Mnihla Urban Vista,Ariana,Mnihla,36.838695,10.076805,Apartment,average,2025-02-18,107,241000,1171,462,0.39453458582408196,301,106,65.0,66578.32,56.855952177625966,144.10891774891778,0.25704526046114434,0.3521594684385382,0.6132075471698113,14870547.24,228777.64984615386,42.0,0.6074766355140186
P0154,Raoued Business Gardens,Ariana,Raoued,36.888418,10.224793,Office,strong,2025-01-23,65,302000,1154,497,0.4306759098786828,357,139,65.0,58104.34,50.35038128249566,116.91014084507042,0.3093587521663778,0.38935574229691877,0.4676258992805755,18502762.86,284657.8901538461,0.0,1.0
P0128,Raoued Business Park,Ariana,Raoued,36.890232,10.234045,Office,average,2025-01-21,79,260000,793,316,0.39848675914249687,195,73,35.0,47001.3,59.27023959646911,148.73829113924052,0.2459016393442623,0.37435897435897436,0.4794520547945205,8610237.2,246006.7771428571,44.0,0.4430379746835443
P0189,Raoued Compact Gardens,Ariana,Raoued,36.88868,10.230843,Studio,strong,2025-03-22,124,188000,1479,634,0.42866801893171064,450,167,104.0,75715.13,51.19346179851251,119.42449526813881,0.30425963488843816,0.3711111111111111,0.6227544910179641,18426850.6,177181.25576923077,20.0,0.8387096774193549
P0196,Raoued Compact Heights,Ariana,Raoued,36.888117,10.225117,Studio,strong,2025-02-23,161,284000,1702,680,0.399529964747356,511,179,107.0,82472.11,48.455998824911866,121.28251470588235,0.300235017626322,0.350293542074364,0.5977653631284916,28712541.71,268341.5113084112,54.0,0.6645962732919255
P0163,Raoued Signature Living,Ariana,Raoued,36.892588,10.224427,Villa,average,2025-04-17,60,435000,545,123,0.22568807339449543,130,26,16.0,39802.27,73.03168807339449,323.59569105691054,0.23853211009174313,0.2,0.6153846153846154,6574742.18,410921.38625,44.0,0.26666666666666666
P0155,Raoued Urban Gardens,Ariana,Raoued,36.883969,10.226737,Apartment,average,2025-05-12,223,277000,733,280,0.3819918144611187,174,62,33.0,46417.53,63.32541609822646,165.77689285714285,0.2373806275579809,0.3563218390804598,0.532258064516129,8541457.9,258832.0575757576,190.0,0.14798206278026907
P0161,Raoued Urban Gardens,Ariana,Raoued,36.894485,10.232255,Apartment,average,2025-01-21,125,259000,1178,441,0.37436332767402375,290,89,46.0,70975.86,60.251154499151106,160.94299319727892,0.2461799660441426,0.30689655172413793,0.5168539325842697,11212791.36,243756.33391304346,79.0,0.368
P0162,Raoued Urban Gardens,Ariana,Raoued,36.900991,10.23097,Apartment,average,2025-05-19,209,323000,757,217,0.2866578599735799,176,51,25.0,49032.25,64.77179656538969,225.95506912442397,0.23249669749009247,0.2897727272727273,0.49019607843137253,7697746.17,307909.8468,184.0,0.11961722488038277
P0178,Raoued Urban Gardens,Ariana,Raoued,36.894245,10.237329,Apartment,average,2025-01-31,202,237000,1163,457,0.3929492691315563,296,100,52.0,68270.03,58.70165950128977,149.38737417943108,0.2545141874462597,0.33783783783783783,0.52,11596246.7,223004.74423076923,150.0,0.25742574257425743
P0202,Raoued Urban Homes,Ariana,Raoued,36.895401,10.235473,Apartment,weak,2025-02-12,202,268000,718,225,0.31337047353760444,131,26,9.0,52401.91,72.98316155988859,232.8973777777778,0.18245125348189414,0.1984732824427481,0.34615384615384615,2314123.4299999997,257124.82555555552,193.0,0.04455445544554455
P0144,Raoued Urban Park,Ariana,Raoued,36.893677,10.22105,Apartment,weak,2025-05-25,116,192000,470,159,0.3382978723404255,97,18,10.0,34863.73,74.17814893617022,219.2687421383648,0.20638297872340425,0.18556701030927836,0.5555555555555556,1816122.51,181612.251,106.0,0.08620689655172414
P0157,Raoued Urban Suites,Ariana,Raoued,36.891047,10.245426,Apartment,average,2025-04-07,128,220000,995,398,0.4,269,84,39.0,56210.12,56.492582914572864,141.23145728643217,0.27035175879396983,0.31226765799256506,0.4642857142857143,8056653.7,206580.8641025641,89.0,0.3046875
P0168,Raoued Urban Terraces,Ariana,Raoued,36.889525,10.23866,Apartment,average,2025-01-31,140,318000,1087,360,0.3311867525298988,249,64,31.0,67220.63,61.84050597976081,186.72397222222224,0.22907083716651333,0.2570281124497992,0.484375,9202957.14,296869.58516129036,109.0,0.22142857142857142
P0176,Raoued Urban Terraces,Ariana,Raoued,36.884423,10.23256,Apartment,average,2025-05-20,105,194000,768,308,0.4010416666666667,202,44,19.0,44012.41,57.30782552083334,142.89743506493508,0.2630208333333333,0.21782178217821782,0.4318181818181818,3441498.71,181131.51105263157,86.0,0.18095238095238095
P0126,Raoued Urban Vista,Ariana,Raoued,36.883762,10.230038,Apartment,weak,2025-03-10,235,252000,675,195,0.28888888888888886,120,25,13.0,47909.6,70.97718518518518,245.6902564102564,0.17777777777777778,0.20833333333333334,0.52,3116693.97,239745.69,222.0,0.05531914893617021
P0404,Bir Bouregba Compact Residences,Hammamet,Bir Bouregba,36.437738,10.573867,Studio,strong,2025-03-06,127,356000,1579,621,0.39328689043698545,413,132,68.0,77879.64,49.32212792906903,125.41004830917875,0.2615579480683977,0.3196125907990315,0.5151515151515151,22909544.59,336905.0675,59.0,0.5354330708661418
P0420,Bir Bouregba Compact Residences,Hammamet,Bir Bouregba,36.441624,10.578116,Studio,weak,2025-05-02,160,217000,607,195,0.3212520593080725,96,23,8.0,40722.02,67.08734761120263,208.83087179487177,0.15815485996705106,0.23958333333333334,0.34782608695652173,1638749.51,204843.68875,152.0,0.05
P0426,Bir Bouregba Signature Gardens,Hammamet,Bir Bouregba,36.433523,10.568005,Villa,average,2025-04-09,76,282000,583,206,0.35334476843910806,126,32,19.0,36657.0,62.876500857632934,177.94660194174756,0.21612349914236706,0.25396825396825395,0.59375,5031835.38,264833.4410526316,57.0,0.25
P0428,Bir Bouregba Signature Gardens,Hammamet,Bir Bouregba,36.43369,10.562656,Villa,average,2025-01-14,74,404000,775,226,0.29161290322580646,165,38,12.0,49453.9,63.81148387096774,218.82256637168143,0.2129032258064516,0.23030303030303031,0.3157894736842105,4542347.78,378528.9816666667,62.0,0.16216216216216217
P0442,Bir Bouregba Signature Gardens,Hammamet,Bir Bouregba,36.442907,10.569305,Villa,weak,2025-03-01,57,270000,494,153,0.3097165991902834,86,15,7.0,35217.23,71.28993927125507,230.17797385620918,0.17408906882591094,0.1744186046511628,0.4666666666666667,1772139.16,253162.73714285714,50.0,0.12280701754385964
P0437,Bir Bouregba Signature Heights,Hammamet,Bir Bouregba,36.440878,10.572604,Villa,weak,2025-04-20,93,345000,446,111,0.24887892376681614,68,14,4.0,33102.38,74.22058295964125,298.21963963963964,0.15246636771300448,0.20588235294117646,0.2857142857142857,1335542.08,333885.52,89.0,0.043010752688172046
P0414,Bir Bouregba Signature Homes,Hammamet,Bir Bouregba,36.424082,10.568455,Villa,strong,2025-04-02,69,523000,855,219,0.256140350877193,172,49,17.0,48581.29,56.82022222222222,221.83237442922376,0.20116959064327486,0.28488372093023256,0.3469387755102041,8343957.17,490821.01,52.0,0.2463768115942029
P0425,Bir Bouregba Signature Homes,Hammamet,Bir Bouregba,36.434452,10.577229,Villa,strong,2025-04-05,42,448000,984,287,0.2916666666666667,205,62,23.0,53565.45,54.43643292682926,186.63919860627178,0.20833333333333334,0.3024390243902439,0.3709677419354839,9804701.95,426291.3891304348,19.0,0.5476190476190477
P0418,Bir Bouregba Signature Terraces,Hammamet,Bir Bouregba,36.444988,10.565979,Villa,average,2025-03-31,44,470000,650,161,0.24769230769230768,136,20,9.0,42143.77,64.83656923076923,261.7625465838509,0.20923076923076922,0.14705882352941177,0.45,3996084.63,444009.4033333333,35.0,0.20454545454545456
P0429,Bir Bouregba Urban Homes,Hammamet,Bir Bouregba,36.431536,10.567435,Apartment,strong,2025-03-03,134,414000,1477,506,0.3425863236289777,365,103,46.0,73729.99,49.91874746106974,145.71144268774705,0.24712254570074474,0.2821917808219178,0.44660194174757284,18092324.84,393311.4095652174,88.0,0.34328358208955223
P0411,Bir Bouregba Urban Living,Hammamet,Bir Bouregba,36.432499,10.57096,Apartment,average,2025-06-05,85,236000,709,249,0.3511988716502116,128,43,16.0,42115.61,59.4014245416079,169.13899598393576,0.18053596614950634,0.3359375,0.37209302325581395,3543281.56,221455.0975,69.0,0.18823529411764706
P0441,Bir Bouregba Urban Park,Hammamet,Bir Bouregba,36.431337,10.571998,Apartment,strong,2025-01-23,97,518000,1219,317,0.26004922067268255,276,77,36.0,75813.16,62.19291222313372,239.1582334384858,0.22641509433962265,0.27898550724637683,0.4675324675324675,17646100.31,490169.4530555555,61.0,0.3711340206185567
P0403,Bir Bouregba Urban Suites,Hammamet,Bir Bouregba,36.440196,10.561852,Apartment,average,2025-03-19,176,406000,860,276,0.3209302325581395,186,44,17.0,56641.21,65.86187209302325,205.22177536231885,0.21627906976744185,0.23655913978494625,0.38636363636363635,6453296.28,379605.6635294118,159.0,0.09659090909090909
P0440,Bir Bouregba Urban Terraces,Hammamet,Bir Bouregba,36.432921,10.575089,Apartment,average,2025-01-30,190,289000,1132,428,0.37809187279151946,271,75,37.0,65424.2,57.795229681978796,152.86028037383176,0.2393992932862191,0.2767527675276753,0.49333333333333335,10052138.85,271679.4283783784,153.0,0.19473684210526315
P0407,Centre Hammamet Compact Park,Hammamet,Centre Hammamet,36.402659,10.617495,Studio,average,2025-01-14,137,307000,1133,421,0.3715798764342454,243,70,34.0,68187.17,60.182850838481905,161.96477434679335,0.2144748455428067,0.2880658436213992,0.4857142857142857,9846065.18,289590.15235294116,103.0,0.24817518248175183
P0416,Centre Hammamet Compact Residences,Hammamet,Centre Hammamet,36.400833,10.617231,Studio,strong,2025-06-10,161,314000,1220,510,0.4180327868852459,326,112,67.0,56486.45,46.300368852459016,110.75774509803921,0.26721311475409837,0.34355828220858897,0.5982142857142857,19890472.75,296872.7276119403,94.0,0.4161490683229814
P0422,Centre Hammamet Signature Suites,Hammamet,Centre Hammamet,36.403191,10.617157,Villa,average,2025-03-11,68,564000,581,99,0.1703958691910499,83,15,6.0,42719.11,73.52686746987952,431.50616161616165,0.14285714285714285,0.18072289156626506,0.4,3180860.42,530143.4033333333,62.0,0.08823529411764706
P0444,Centre Hammamet Signature Terraces,Hammamet,Centre Hammamet,36.402963,10.623275,Villa,strong,2025-01-22,87,798000,764,65,0.08507853403141362,108,20,11.0,61852.81,80.95917539267015,951.5816923076923,0.14136125654450263,0.18518518518518517,0.55,8223549.28,747595.3890909092,76.0,0.12643678160919541
P0406,Centre Hammamet Signature Vista,Hammamet,Centre Hammamet,36.393382,10.616723,Villa,strong,2025-02-01,49,683000,830,111,0.13373493975903614,155,30,10.0,58250.28,70.18106024096386,524.7772972972973,0.18674698795180722,0.1935483870967742,0.3333333333333333,6457912.36,645791.236,39.0,0.20408163265306123
P0417,Centre Hammamet Signature Vista,Hammamet,Centre Hammamet,36.392833,10.607303,Villa,average,2025-01-20,48,372000,795,268,0.3371069182389937,163,42,19.0,47439.38,59.672176100628924,177.01261194029848,0.2050314465408805,0.25766871165644173,0.4523809523809524,6617039.39,348265.23105263157,29.0,0.3958333333333333
P0413,Centre Hammamet Urban Gardens,Hammamet,Centre Hammamet,36.405768,10.620869,Apartment,average,2025-05-20,169,403000,776,184,0.23711340206185566,156,36,10.0,47552.56,61.27907216494845,258.43782608695653,0.20103092783505155,0.23076923076923078,0.2777777777777778,3797802.06,379780.206,159.0,0.05917159763313609
P0432,Centre Hammamet Urban Homes,Hammamet,Centre Hammamet,36.399714,10.615761,Apartment,strong,2025-06-10,157,558000,825,180,0.21818181818181817,165,50,20.0,52581.44,63.73507878787879,292.1191111111111,0.2,0.30303030303030304,0.4,10473048.18,523652.409,137.0,0.12738853503184713
P0433,Centre Hammamet Urban Residences,Hammamet,Centre Hammamet,36.400617,10.618265,Apartment,average,2025-04-04,158,303000,883,298,0.33748584371460927,161,45,16.0,51989.92,58.87873159682899,174.4628187919463,0.1823329558323896,0.2795031055900621,0.35555555555555557,4549548.56,284346.785,142.0,0.10126582278481013
P0410,Centre Hammamet Urban Suites,Hammamet,Centre Hammamet,36.389267,10.620988,Apartment,weak,2025-05-19,85,327000,538,164,0.3048327137546468,87,19,6.0,38619.95,71.7842936802974,235.48749999999998,0.16171003717472118,0.21839080459770116,0.3157894736842105,1893501.47,315583.5783333333,79.0,0.07058823529411765
P0405,Mrezga Sud Compact Homes,Hammamet,Mrezga Sud,36.397891,10.616413,Studio,average,2025-03-29,88,186000,979,354,0.3615934627170582,216,49,21.0,60811.74,62.1161797752809,171.78457627118644,0.22063329928498468,0.22685185185185186,0.42857142857142855,3659471.54,174260.54952380952,67.0,0.23863636363636365
P0430,Mrezga Sud Signature Gardens,Hammamet,Mrezga Sud,36.396312,10.62474,Villa,average,2025-04-16,36,638000,500,61,0.122,87,13,3.0,39638.14,79.27628,649.8055737704918,0.174,0.14942528735632185,0.23076923076923078,1864288.68,621429.5599999999,33.0,0.08333333333333333
P0399,Mrezga Sud Signature Heights,Hammamet,Mrezga Sud,36.395574,10.628148,Villa,average,2025-04-18,41,337000,675,245,0.362962962962963,142,47,19.0,40472.55,59.95933333333334,165.19408163265308,0.21037037037037037,0.33098591549295775,0.40425531914893614,6060188.2299999995,318957.27526315785,22.0,0.4634146341463415
P0419,Mrezga Sud Signature Heights,Hammamet,Mrezga Sud,36.398199,10.622109,Villa,average,2025-04-23,60,584000,474,75,0.15822784810126583,73,14,6.0,36661.65,77.34525316455696,488.822,0.1540084388185654,0.1917808219178082,0.42857142857142855,3295045.0300000003,549174.1716666667,54.0,0.1
P0402,Mrezga Sud Signature Living,Hammamet,Mrezga Sud,36.398283,10.620349,Villa,strong,2025-04-11,94,689000,679,93,0.13696612665684832,117,25,14.0,48755.67,71.80511045655375,524.2545161290323,0.1723122238586156,0.21367521367521367,0.56,9163566.41,654540.4578571429,80.0,0.14893617021276595
P0415,Mrezga Sud Signature Park,Hammamet,Mrezga Sud,36.400696,10.623459,Villa,average,2025-01-01,84,462000,872,220,0.25229357798165136,191,48,16.0,54261.74,62.22676605504587,246.64427272727272,0.2190366972477064,0.2513089005235602,0.3333333333333333,6953393.32,434587.0825,68.0,0.19047619047619047
P0438,Mrezga Sud Signature Residences,Hammamet,Mrezga Sud,36.394382,10.627994,Villa,strong,2025-04-08,55,745000,644,70,0.10869565217391304,81,23,9.0,48504.83,75.31805900621119,692.9261428571428,0.12577639751552794,0.2839506172839506,0.391304347826087,6225805.79,691756.1988888889,46.0,0.16363636363636364
P0424,Mrezga Sud Signature Suites,Hammamet,Mrezga Sud,36.41151,10.617081,Villa,average,2025-01-12,63,644000,588,72,0.12244897959183673,88,10,5.0,48362.45,82.24906462585034,671.7006944444444,0.14965986394557823,0.11363636363636363,0.5,3112095.12,622419.024,58.0,0.07936507936507936
P0427,Mrezga Sud Signature Vista,Hammamet,Mrezga Sud,36.39909,10.617201,Villa,average,2025-05-23,65,342000,544,178,0.3272058823529412,102,18,2.0,32700.05,60.110386029411764,183.70814606741573,0.1875,0.17647058823529413,0.1111111111111111,642301.5,321150.75,63.0,0.03076923076923077
P0439,Mrezga Sud Urban Gardens,Hammamet,Mrezga Sud,36.401601,10.628424,Apartment,average,2025-02-06,87,446000,1078,255,0.23654916512059368,205,54,15.0,67911.6,62.997773654916514,266.32000000000005,0.1901669758812616,0.2634146341463415,0.2777777777777778,6290273.76,419351.584,72.0,0.1724137931034483
P0436,Mrezga Sud Urban Homes,Hammamet,Mrezga Sud,36.396093,10.620549,Apartment,strong,2025-05-04,212,496000,1078,274,0.2541743970315399,230,56,24.0,59047.42,54.77497217068645,215.50153284671532,0.21335807050092764,0.24347826086956523,0.42857142857142855,11188510.25,466187.9270833333,188.0,0.11320754716981132
P0400,Mrezga Sud Urban Park,Hammamet,Mrezga Sud,36.400508,10.628126,Apartment,average,2025-02-18,84,279000,1015,385,0.3793103448275862,213,54,26.0,60923.159999999996,60.022817733990145,158.241974025974,0.20985221674876847,0.2535211267605634,0.48148148148148145,6832247.94,262778.76692307694,58.0,0.30952380952380953
P0423,Yasmine Hammamet Business Living,Hammamet,Yasmine Hammamet,36.364934,10.532956,Office,weak,2025-06-07,47,316000,378,113,0.29894179894179895,70,16,8.0,25015.55,66.1787037037037,221.37654867256637,0.18518518518518517,0.22857142857142856,0.5,2431665.83,303958.22875,39.0,0.1702127659574468
P0443,Yasmine Hammamet Business Suites,Hammamet,Yasmine Hammamet,36.370335,10.536323,Office,average,2025-01-01,116,492000,705,181,0.25673758865248225,106,25,11.0,46971.51,66.62625531914894,259.5111049723757,0.150354609929078,0.2358490566037736,0.44,5014007.76,455818.88727272727,105.0,0.09482758620689655
P0401,Yasmine Hammamet Signature Heights,Hammamet,Yasmine Hammamet,36.36197,10.527148,Villa,average,2025-05-05,61,399000,578,152,0.2629757785467128,123,32,13.0,35366.53,61.18776816608997,232.6745394736842,0.21280276816608998,0.2601626016260163,0.40625,4888987.11,376075.9315384616,48.0,0.21311475409836064
P0412,Yasmine Hammamet Signature Living,Hammamet,Yasmine Hammamet,36.375079,10.530499,Villa,strong,2025-04-25,62,751000,578,56,0.09688581314878893,104,21,6.0,47100.19,81.48821799307959,841.0748214285715,0.17993079584775087,0.20192307692307693,0.2857142857142857,4251126.72,708521.12,56.0,0.0967741935483871
P0435,Yasmine Hammamet Signature Park,Hammamet,Yasmine Hammamet,36.373051,10.5423,Villa,average,2025-05-11,46,476000,551,139,0.25226860254083483,88,22,7.0,35795.11,64.96390199637024,257.5187769784173,0.15970961887477314,0.25,0.3181818181818182,3129881.66,447125.9514285714,39.0,0.15217391304347827
P0434,Yasmine Hammamet Signature Residences,Hammamet,Yasmine Hammamet,36.364784,10.525717,Villa,strong,2025-03-31,78,637000,779,137,0.17586649550706032,150,35,16.0,53714.45,68.95308087291399,392.0762773722628,0.1925545571245186,0.23333333333333334,0.45714285714285713,9451906.64,590744.165,62.0,0.20512820512820512
P0398,Yasmine Hammamet Urban Living,Hammamet,Yasmine Hammamet,36.361944,10.53233,Apartment,weak,2025-02-07,85,394000,693,179,0.2582972582972583,102,17,6.0,47741.56,68.89113997113996,266.712625698324,0.1471861471861472,0.16666666666666666,0.35294117647058826,2210036.34,368339.38999999996,79.0,0.07058823529411765
P0421,Yasmine Hammamet Urban Park,Hammamet,Yasmine Hammamet,36.370149,10.528313,Apartment,average,2025-05-18,204,230000,799,279,0.34918648310387984,171,50,21.0,45148.01,56.50564455569462,161.82082437275986,0.21401752190237797,0.29239766081871343,0.42,4552757.9399999995,216797.99714285712,183.0,0.10294117647058823
P0397,Yasmine Hammamet Urban Suites,Hammamet,Yasmine Hammamet,36.363593,10.524226,Apartment,weak,2025-03-23,207,197000,649,206,0.31741140215716485,112,21,5.0,44743.6,68.94237288135594,217.20194174757282,0.17257318952234207,0.1875,0.23809523809523808,918776.44,183755.288,202.0,0.024154589371980676
P0409,Yasmine Hammamet Urban Suites,Hammamet,Yasmine Hammamet,36.366067,10.539097,Apartment,average,2025-03-01,116,300000,1095,364,0.3324200913242009,220,62,17.0,64079.82,58.52038356164383,176.04346153846154,0.2009132420091324,0.2818181818181818,0.27419354838709675,4780062.39,281180.1405882353,99.0,0.14655172413793102
P0408,Yasmine Hammamet Urban Terraces,Hammamet,Yasmine Hammamet,36.367304,10.530796,Apartment,strong,2025-03-06,162,315000,1718,768,0.4470314318975553,471,157,84.0,78182.75,45.50800349243306,101.80045572916667,0.2741559953434226,0.3333333333333333,0.535031847133758,25054680.45,298270.0053571428,78.0,0.5185185185185185
P0431,Yasmine Hammamet Urban Vista,Hammamet,Yasmine Hammamet,36.369038,10.533289,Apartment,average,2025-06-04,103,228000,754,276,0.3660477453580902,181,53,28.0,43848.07,58.15393899204244,158.8698188405797,0.24005305039787797,0.292817679558011,0.5283018867924528,6075506.49,216982.37464285715,75.0,0.27184466019417475
P0239,Cite Les Pins Business Gardens,La Marsa,Cite Les Pins,36.878886,10.319167,Office,weak,2025-01-20,54,596000,400,108,0.27,52,8,0.0,29980.05,74.950125,277.59305555555557,0.13,0.15384615384615385,0.0,0.0,596000.0,54.0,0.0
P0256,Cite Les Pins Business Homes,La Marsa,Cite Les Pins,36.87575,10.323084,Office,weak,2025-04-27,84,632000,288,82,0.2847222222222222,28,4,1.0,22424.27,77.8620486111111,273.4667073170732,0.09722222222222222,0.14285714285714285,0.25,589847.81,589847.81,83.0,0.011904761904761904
P0234,Cite Les Pins Compact Park,La Marsa,Cite Les Pins,36.895582,10.320882,Studio,weak,2025-05-27,158,236000,385,101,0.2623376623376623,61,8,2.0,27699.68,71.94722077922079,274.2542574257426,0.15844155844155844,0.13114754098360656,0.25,442101.27,221050.635,156.0,0.012658227848101266
P0205,Cite Les Pins Compact Terraces,La Marsa,Cite Les Pins,36.881297,10.311022,Studio,average,2025-02-04,101,486000,926,316,0.3412526997840173,156,38,9.0,54941.26,59.331814254859616,173.86474683544304,0.16846652267818574,0.24358974358974358,0.23684210526315788,4119247.45,457694.1611111111,92.0,0.0891089108910891
P0213,Cite Les Pins Signature Gardens,La Marsa,Cite Les Pins,36.881844,10.307848,Villa,average,2025-02-19,59,644000,612,202,0.3300653594771242,97,22,6.0,37843.36,61.83555555555556,187.34336633663366,0.15849673202614378,0.2268041237113402,0.2727272727272727,3614232.73,602372.1216666667,53.0,0.1016949152542373
P0207,Cite Les Pins Signature Homes,La Marsa,Cite Les Pins,36.891348,10.315394,Villa,average,2025-06-05,59,1112000,339,57,0.168141592920354,40,8,1.0,26010.46,76.72702064896755,456.32385964912277,0.11799410029498525,0.2,0.125,1060116.86,1060116.86,58.0,0.01694915254237288
P0223,Cite Les Pins Signature Homes,La Marsa,Cite Les Pins,36.884919,10.30687,Villa,average,2025-03-10,41,1162000,476,77,0.16176470588235295,64,14,2.0,36669.46,77.0366806722689,476.2267532467532,0.13445378151260504,0.21875,0.14285714285714285,2259277.85,1129638.925,39.0,0.04878048780487805
P0224,Cite Les Pins Signature Homes,La Marsa,Cite Les Pins,36.888107,10.316406,Villa,weak,2025-02-22,58,506000,450,124,0.27555555555555555,56,11,3.0,31673.26,70.38502222222222,255.42951612903224,0.12444444444444444,0.19642857142857142,0.2727272727272727,1471226.34,490408.78,55.0,0.05172413793103448
P0253,Cite Les Pins Signature Living,La Marsa,Cite Les Pins,36.888813,10.313775,Villa,average,2025-02-27,33,992000,545,124,0.22752293577981653,68,10,5.0,38496.34,70.63548623853211,310.45435483870966,0.12477064220183487,0.14705882352941177,0.5,4706510.22,941302.044,28.0,0.15151515151515152
P0243,Cite Les Pins Signature Park,La Marsa,Cite Les Pins,36.888272,10.317078,Villa,average,2025-04-19,78,1505000,324,28,0.08641975308641975,40,9,1.0,32335.86,99.80203703703704,1154.8521428571428,0.12345679012345678,0.225,0.1111111111111111,1422089.19,1422089.19,77.0,0.01282051282051282
P0209,Cite Les Pins Signature Terraces,La Marsa,Cite Les Pins,36.89029,10.311862,Villa,weak,2025-05-09,29,988000,290,43,0.1482758620689655,35,1,0.0,24517.74,84.54393103448277,570.1800000000001,0.1206896551724138,0.02857142857142857,0.0,0.0,988000.0,29.0,0.0
P0228,Cite Les Pins Signature Terraces,La Marsa,Cite Les Pins,36.894899,10.313664,Villa,average,2025-02-21,50,824000,537,137,0.25512104283054005,86,21,7.0,36097.06,67.21985102420857,263.4821897810219,0.1601489757914339,0.2441860465116279,0.3333333333333333,5369883.19,767126.17,43.0,0.14
P0230,Cite Les Pins Signature Vista,La Marsa,Cite Les Pins,36.88402,10.322862,Villa,weak,2025-06-05,72,718000,266,65,0.24436090225563908,24,3,0.0,20383.95,76.63139097744362,313.59923076923076,0.09022556390977443,0.125,0.0,0.0,718000.0,72.0,0.0
P0222,Cite Les Pins Urban Gardens,La Marsa,Cite Les Pins,36.891524,10.312791,Apartment,average,2025-05-13,182,653000,568,180,0.31690140845070425,106,16,5.0,36217.46,63.7631338028169,201.2081111111111,0.18661971830985916,0.1509433962264151,0.3125,3084462.4,616892.48,177.0,0.027472527472527472
P0221,Cite Les Pins Urban Heights,La Marsa,Cite Les Pins,36.89689,10.317478,Apartment,weak,2025-01-25,84,619000,571,137,0.23992994746059546,66,11,3.0,45178.71,79.12208406304728,329.77160583941605,0.11558669001751314,0.16666666666666666,0.2727272727272727,1764991.94,588330.6466666666,81.0,0.03571428571428571
P0244,Cite Les Pins Urban Park,La Marsa,Cite Les Pins,36.891661,10.314844,Apartment,strong,2025-01-16,102,538000,1331,490,0.3681442524417731,309,82,34.0,67968.56,51.06578512396694,138.7113469387755,0.23215627347858753,0.26537216828478966,0.4146341463414634,17203012.44,505970.9541176471,68.0,0.3333333333333333
P0257,Cite Les Pins Urban Park,La Marsa,Cite Les Pins,36.885067,10.327414,Apartment,strong,2025-05-08,144,639000,856,346,0.40420560747663553,200,55,27.0,44438.37,51.91398364485982,128.43459537572255,0.2336448598130841,0.275,0.4909090909090909,16111791.25,596733.0092592592,117.0,0.1875
P0252,Cite Les Pins Urban Residences,La Marsa,Cite Les Pins,36.890986,10.311008,Apartment,strong,2025-06-06,162,644000,749,317,0.4232309746328438,184,52,26.0,39374.46,52.56937249666222,124.20965299684542,0.24566088117489987,0.2826086956521739,0.5,15854182.18,609776.2376923077,136.0,0.16049382716049382
P0251,Gammarth Business Gardens,La Marsa,Gammarth,36.925604,10.285656,Office,strong,2025-03-24,94,952000,626,184,0.2939297124600639,102,28,10.0,35951.76,57.43092651757189,195.39000000000001,0.16293929712460065,0.27450980392156865,0.35714285714285715,9199013.43,919901.343,84.0,0.10638297872340426
P0210,Gammarth Business Homes,La Marsa,Gammarth,36.920983,10.28303,Office,strong,2025-02-06,64,916000,782,250,0.319693094629156,169,52,27.0,45290.17,57.915818414322246,181.16067999999999,0.21611253196930946,0.3076923076923077,0.5192307692307693,23386118.1,866152.5222222223,37.0,0.421875
P0211,Gammarth Business Homes,La Marsa,Gammarth,36.914206,10.282148,Office,average,2025-05-06,104,907000,398,93,0.23366834170854273,57,13,7.0,26076.73,65.51942211055277,280.3949462365591,0.14321608040201006,0.22807017543859648,0.5384615384615384,5959532.11,851361.7300000001,97.0,0.0673076923076923
P0216,Gammarth Business Residences,La Marsa,Gammarth,36.909365,10.277376,Office,average,2025-04-24,75,990000,389,80,0.20565552699228792,67,13,3.0,28155.0,72.37789203084833,351.9375,0.17223650385604114,0.19402985074626866,0.23076923076923078,2733351.18,911117.06,72.0,0.04
P0231,Gammarth Signature Heights,La Marsa,Gammarth,36.916353,10.276658,Villa,weak,2025-02-06,76,1045000,372,53,0.1424731182795699,43,8,2.0,30794.11,82.77986559139785,581.0209433962265,0.11559139784946236,0.18604651162790697,0.25,2028344.0899999999,1014172.0449999999,74.0,0.02631578947368421
P0246,Gammarth Signature Heights,La Marsa,Gammarth,36.917882,10.284613,Villa,average,2025-02-15,77,1141000,521,71,0.1362763915547025,71,10,1.0,40707.14,78.13270633397313,573.34,0.1362763915547025,0.14084507042253522,0.1,1045556.89,1045556.89,76.0,0.012987012987012988
P0233,Gammarth Signature Homes,La Marsa,Gammarth,36.920808,10.286241,Villa,average,2025-02-09,66,1015000,547,112,0.20475319926873858,85,17,10.0,39684.84,72.54998171846434,354.32892857142855,0.15539305301645337,0.2,0.5882352941176471,9686759.81,968675.981,56.0,0.15151515151515152
P0206,Gammarth Signature Living,La Marsa,Gammarth,36.915776,10.286024,Villa,average,2025-03-10,50,759000,568,202,0.35563380281690143,108,23,11.0,36369.21,64.03029929577464,180.04559405940594,0.19014084507042253,0.21296296296296297,0.4782608695652174,7921683.31,720153.0281818182,39.0,0.22
P0263,Gammarth Signature Residences,La Marsa,Gammarth,36.922233,10.284895,Villa,weak,2025-02-19,77,985000,335,64,0.191044776119403,46,5,1.0,29183.55,87.11507462686566,455.99296875,0.1373134328358209,0.10869565217391304,0.2,939932.81,939932.81,76.0,0.012987012987012988
P0235,Gammarth Signature Terraces,La Marsa,Gammarth,36.921597,10.287971,Villa,weak,2025-02-17,80,469000,404,123,0.30445544554455445,56,13,5.0,32334.72,80.03643564356436,262.8839024390244,0.13861386138613863,0.23214285714285715,0.38461538461538464,2178487.72,435697.54400000005,75.0,0.0625
P0219,Gammarth Signature Vista,La Marsa,Gammarth,36.919949,10.29049,Villa,average,2025-01-25,48,852000,603,176,0.29187396351575456,103,18,7.0,41978.159999999996,69.6155223880597,238.51227272727272,0.17081260364842454,0.17475728155339806,0.3888888888888889,5489513.63,784216.2328571428,41.0,0.14583333333333334
P0217,Gammarth Urban Gardens,La Marsa,Gammarth,36.918429,10.279577,Apartment,average,2025-01-14,171,626000,819,271,0.3308913308913309,150,31,15.0,51795.31,63.24213675213675,191.12660516605166,0.18315018315018314,0.20666666666666667,0.4838709677419355,8782708.02,585513.868,156.0,0.08771929824561403
P0255,Gammarth Urban Living,La Marsa,Gammarth,36.921241,10.282772,Apartment,weak,2025-03-02,103,620000,502,145,0.28884462151394424,73,9,6.0,38178.17,76.05213147410358,263.297724137931,0.1454183266932271,0.1232876712328767,0.6666666666666666,3584713.45,597452.2416666667,97.0,0.05825242718446602
P0232,Gammarth Urban Park,La Marsa,Gammarth,36.914762,10.281306,Apartment,strong,2025-02-26,148,717000,1061,415,0.3911404335532517,251,83,44.0,61285.49,57.76200754005655,147.6758795180723,0.236569274269557,0.33067729083665337,0.5301204819277109,29706407.39,675145.6225,104.0,0.2972972972972973
P0241,Gammarth Urban Terraces,La Marsa,Gammarth,36.910777,10.284363,Apartment,average,2025-04-15,107,896000,613,148,0.24143556280587275,94,20,6.0,42240.8,68.90831973898858,285.41081081081086,0.1533442088091354,0.2127659574468085,0.3,5088811.94,848135.3233333334,101.0,0.056074766355140186
P0259,Marsa Plage Business Gardens,La Marsa,Marsa Plage,36.895638,10.322275,Office,average,2025-06-02,62,852000,360,94,0.2611111111111111,62,17,3.0,23072.6,64.09055555555555,245.4531914893617,0.17222222222222222,0.27419354838709675,0.17647058823529413,2430352.67,810117.5566666666,59.0,0.04838709677419355
P0238,Marsa Plage Business Park,La Marsa,Marsa Plage,36.88466,10.317574,Office,average,2025-05-28,84,581000,393,136,0.3460559796437659,63,12,1.0,23049.93,58.651221374045804,169.48477941176472,0.16030534351145037,0.19047619047619047,0.08333333333333333,560067.2,560067.2,83.0,0.011904761904761904
P0218,Marsa Plage Business Terraces,La Marsa,Marsa Plage,36.888816,10.322262,Office,strong,2025-01-11,75,737000,865,330,0.3815028901734104,192,52,23.0,46188.51,53.39712138728324,139.96518181818183,0.22196531791907514,0.2708333333333333,0.4423076923076923,15984126.2,694962.0086956521,52.0,0.30666666666666664
P0260,Marsa Plage Business Terraces,La Marsa,Marsa Plage,36.883181,10.327879,Office,strong,2025-04-19,76,760000,664,241,0.3629518072289157,151,40,16.0,36687.7,55.25256024096385,152.2311203319502,0.22740963855421686,0.26490066225165565,0.4,11471743.89,716983.993125,60.0,0.21052631578947367
P0208,Marsa Plage Compact Vista,La Marsa,Marsa Plage,36.890013,10.330857,Studio,average,2025-06-05,128,479000,563,185,0.3285968028419183,108,30,8.0,35288.53,62.67944937833037,190.7488108108108,0.19182948490230906,0.2777777777777778,0.26666666666666666,3669147.5,458643.4375,120.0,0.0625
P0236,Marsa Plage Signature Gardens,La Marsa,Marsa Plage,36.885033,10.324111,Villa,weak,2025-02-04,48,478000,421,103,0.24465558194774348,55,5,1.0,32266.38,76.64223277909738,313.26582524271845,0.13064133016627077,0.09090909090909091,0.2,451965.54,451965.54,47.0,0.020833333333333332
P0261,Marsa Plage Signature Heights,La Marsa,Marsa Plage,36.894664,10.317954,Villa,average,2025-04-20,73,1272000,377,40,0.10610079575596817,44,6,0.0,32824.51,87.06766578249338,820.61275,0.11671087533156499,0.13636363636363635,0.0,0.0,1272000.0,73.0,0.0
P0237,Marsa Plage Signature Living,La Marsa,Marsa Plage,36.882415,10.325922,Villa,average,2025-02-11,57,1423000,403,44,0.10918114143920596,42,8,1.0,37135.86,92.14853598014888,843.9968181818182,0.10421836228287841,0.19047619047619047,0.125,1379177.99,1379177.99,56.0,0.017543859649122806
P0240,Marsa Plage Signature Vista,La Marsa,Marsa Plage,36.893865,10.331972,Villa,weak,2025-04-29,88,890000,272,61,0.22426470588235295,39,5,2.0,21761.35,80.00496323529411,356.7434426229508,0.14338235294117646,0.1282051282051282,0.4,1702922.29,851461.145,86.0,0.022727272727272728
P0215,Marsa Plage Urban Gardens,La Marsa,Marsa Plage,36.891475,10.323492,Apartment,strong,2025-02-04,152,785000,1184,429,0.3623310810810811,260,70,34.0,63589.94,53.70771959459459,148.22829836829837,0.2195945945945946,0.2692307692307692,0.4857142857142857,25381693.37,746520.3932352941,118.0,0.2236842105263158
P0242,Marsa Plage Urban Heights,La Marsa,Marsa Plage,36.885435,10.32433,Apartment,average,2025-02-23,160,1001000,674,126,0.18694362017804153,97,21,2.0,49918.53,74.0631008902077,396.1788095238095,0.14391691394658754,0.21649484536082475,0.09523809523809523,1874082.2,937041.1,158.0,0.0125
P0248,Marsa Plage Urban Living,La Marsa,Marsa Plage,36.885393,10.320737,Apartment,strong,2025-01-31,158,1009000,1144,314,0.2744755244755245,210,48,24.0,67361.17,58.882141608391606,214.52601910828025,0.18356643356643357,0.22857142857142856,0.5,22851192.69,952133.02875,134.0,0.1518987341772152
P0258,Marsa Plage Urban Living,La Marsa,Marsa Plage,36.893017,10.323929,Apartment,average,2025-01-18,178,792000,865,246,0.28439306358381505,142,38,13.0,54422.74,62.916462427745664,221.23065040650405,0.16416184971098266,0.2676056338028169,0.34210526315789475,9714166.51,747243.5776923076,165.0,0.07303370786516854
P0254,Marsa Plage Urban Park,La Marsa,Marsa Plage,36.879503,10.319935,Apartment,weak,2025-05-26,140,684000,359,112,0.31197771587743733,46,6,2.0,26826.41,74.72537604456825,239.52151785714287,0.12813370473537605,0.13043478260869565,0.3333333333333333,1265831.2,632915.6,138.0,0.014285714285714285
P0225,Marsa Plage Urban Residences,La Marsa,Marsa Plage,36.891539,10.327709,Apartment,weak,2025-02-27,106,558000,511,141,0.2759295499021526,63,5,3.0,39973.13,78.22530332681018,283.4973758865248,0.1232876712328767,0.07936507936507936,0.6,1565512.1600000001,521837.3866666667,103.0,0.02830188679245283
P0264,Marsa Plage Urban Terraces,La Marsa,Marsa Plage,36.888286,10.320562,Apartment,strong,2025-04-15,132,1008000,831,196,0.2358604091456077,138,33,8.0,54592.15,65.6945246690734,278.5313775510204,0.16606498194945848,0.2391304347826087,0.24242424242424243,7599251.27,949906.40875,124.0,0.06060606060606061
P0212,Sidi Daoud Business Vista,La Marsa,Sidi Daoud,36.868592,10.297353,Office,weak,2025-03-28,93,615000,306,77,0.25163398692810457,30,5,1.0,23595.44,77.10928104575163,306.4342857142857,0.09803921568627451,0.16666666666666666,0.2,572729.82,572729.82,92.0,0.010752688172043012
P0227,Sidi Daoud Business Vista,La Marsa,Sidi Daoud,36.872868,10.291078,Office,strong,2025-01-08,47,1064000,757,154,0.20343461030383092,133,32,10.0,46955.28,62.02811096433289,304.9044155844156,0.17569352708058125,0.24060150375939848,0.3125,9974447.72,997444.7720000001,37.0,0.2127659574468085
P0214,Sidi Daoud Signature Park,La Marsa,Sidi Daoud,36.880096,10.300083,Villa,average,2025-05-01,54,1084000,333,55,0.16516516516516516,52,10,5.0,26727.78,80.2636036036036,485.9596363636363,0.15615615615615616,0.19230769230769232,0.5,5169586.95,1033917.39,49.0,0.09259259259259259
P0262,Sidi Daoud Signature Terraces,La Marsa,Sidi Daoud,36.878575,10.295346,Villa,strong,2025-02-28,53,1255000,649,118,0.18181818181818182,88,21,7.0,45793.07,70.55942989214175,388.07686440677963,0.13559322033898305,0.23863636363636365,0.3333333333333333,8219775.95,1174253.7071428571,46.0,0.1320754716981132
P0226,Sidi Daoud Signature Vista,La Marsa,Sidi Daoud,36.880223,10.300798,Villa,average,2025-02-12,76,1301000,517,51,0.09864603481624758,63,6,1.0,41005.2,79.3137330754352,804.0235294117647,0.1218568665377176,0.09523809523809523,0.16666666666666666,1244152.2,1244152.2,75.0,0.013157894736842105
P0229,Sidi Daoud Urban Gardens,La Marsa,Sidi Daoud,36.873446,10.296836,Apartment,strong,2025-04-07,104,570000,1075,442,0.4111627906976744,245,80,39.0,56139.32,52.22262325581395,127.01203619909502,0.22790697674418606,0.32653061224489793,0.4875,21065338.07,540136.8735897436,65.0,0.375
P0245,Sidi Daoud Urban Heights,La Marsa,Sidi Daoud,36.871723,10.294328,Apartment,average,2025-01-06,96,548000,972,343,0.35288065843621397,168,41,13.0,57251.85,58.90108024691358,166.91501457725948,0.1728395061728395,0.24404761904761904,0.3170731707317073,6718131.51,516779.3469230769,83.0,0.13541666666666666
P0250,Sidi Daoud Urban Park,La Marsa,Sidi Daoud,36.871675,10.287105,Apartment,strong,2025-05-22,142,1167000,711,150,0.2109704641350211,133,27,10.0,42498.74,59.77319268635724,283.3249333333333,0.18706047819971872,0.20300751879699247,0.37037037037037035,11081214.629999999,1108121.463,132.0,0.07042253521126761
P0249,Sidi Daoud Urban Residences,La Marsa,Sidi Daoud,36.871781,10.303304,Apartment,weak,2025-03-07,193,408000,466,113,0.24248927038626608,51,5,1.0,35333.74,75.82347639484978,312.6879646017699,0.10944206008583691,0.09803921568627451,0.2,397184.28,397184.28,192.0,0.0051813471502590676
P0220,Sidi Daoud Urban Terraces,La Marsa,Sidi Daoud,36.870194,10.294224,Apartment,average,2025-03-30,152,688000,675,222,0.3288888888888889,98,21,9.0,42951.87,63.632400000000004,193.4768918918919,0.1451851851851852,0.21428571428571427,0.42857142857142855,5940038.19,660004.2433333334,143.0,0.05921052631578947
P0247,Sidi Daoud Urban Terraces,La Marsa,Sidi Daoud,36.87735,10.299198,Apartment,strong,2025-01-14,132,599000,1315,502,0.3817490494296578,279,78,38.0,70649.79,53.72607604562737,140.73663346613546,0.21216730038022813,0.27956989247311825,0.48717948717948717,21494466.84,565643.8642105263,94.0,0.2878787878787879
P0343,Cite El Wafa Business Homes,Nabeul,Cite El Wafa,36.454005,10.736847,Office,average,2025-03-24,79,369000,644,215,0.3338509316770186,156,42,23.0,37929.83,58.89725155279503,176.41781395348838,0.2422360248447205,0.2692307692307692,0.5476190476190477,7967454.18,346411.0513043478,56.0,0.2911392405063291
P0371,Cite El Wafa Business Vista,Nabeul,Cite El Wafa,36.459058,10.726432,Office,average,2025-02-11,79,319000,841,289,0.3436385255648038,177,58,27.0,47182.52,56.10287752675386,163.26131487889273,0.21046373365041618,0.327683615819209,0.46551724137931033,8177442.77,302868.25074074074,52.0,0.34177215189873417
P0376,Cite El Wafa Compact Gardens,Nabeul,Cite El Wafa,36.461211,10.743599,Studio,weak,2025-03-04,88,188000,696,202,0.29022988505747127,115,21,7.0,48335.08,69.4469540229885,239.28257425742575,0.16522988505747127,0.1826086956521739,0.3333333333333333,1233747.11,176249.58714285717,81.0,0.07954545454545454
P0345,Cite El Wafa Compact Residences,Nabeul,Cite El Wafa,36.461286,10.736945,Studio,average,2025-05-25,182,249000,836,306,0.3660287081339713,198,65,32.0,48380.08,57.870909090909095,158.1048366013072,0.23684210526315788,0.3282828282828283,0.49230769230769234,7491026.99,234094.5934375,150.0,0.17582417582417584
P0379,Cite El Wafa Signature Gardens,Nabeul,Cite El Wafa,36.463371,10.72843,Villa,strong,2025-05-15,44,477000,768,176,0.22916666666666666,178,42,17.0,45498.46,59.242786458333335,258.5139772727273,0.23177083333333334,0.23595505617977527,0.40476190476190477,7640218.7,449424.62941176473,27.0,0.38636363636363635
P0348,Cite El Wafa Signature Heights,Nabeul,Cite El Wafa,36.457418,10.734015,Villa,average,2025-03-26,62,292000,799,325,0.4067584480600751,184,49,18.0,42908.21,53.70239048811013,132.02526153846154,0.23028785982478098,0.266304347826087,0.3673469387755102,4983205.46,276844.7477777778,44.0,0.2903225806451613
P0383,Cite El Wafa Signature Heights,Nabeul,Cite El Wafa,36.458271,10.731491,Villa,weak,2025-01-28,74,288000,583,182,0.31217838765008576,98,26,9.0,39145.25,67.14451114922814,215.0837912087912,0.1680960548885077,0.2653061224489796,0.34615384615384615,2449325.53,272147.2811111111,65.0,0.12162162162162163
P0362,Cite El Wafa Signature Park,Nabeul,Cite El Wafa,36.461226,10.750159,Villa,average,2025-02-06,57,390000,763,211,0.2765399737876802,160,49,21.0,48352.61,63.37170380078637,229.15928909952606,0.20969855832241152,0.30625,0.42857142857142855,7702492.94,366785.3780952381,36.0,0.3684210526315789
P0384,Cite El Wafa Signature Park,Nabeul,Cite El Wafa,36.468598,10.737033,Villa,strong,2025-03-30,75,676000,752,82,0.10904255319148937,154,27,11.0,55988.94,74.45337765957447,682.7919512195123,0.2047872340425532,0.17532467532467533,0.4074074074074074,7054034.85,641275.8954545454,64.0,0.14666666666666667
P0347,Cite El Wafa Signature Suites,Nabeul,Cite El Wafa,36.464352,10.728841,Villa,strong,2025-01-27,52,579000,1047,182,0.17382999044890163,193,53,16.0,65203.59,62.276590257879654,358.2614835164835,0.18433619866284623,0.27461139896373055,0.3018867924528302,8780972.85,548810.803125,36.0,0.3076923076923077
P0381,Cite El Wafa Signature Vista,Nabeul,Cite El Wafa,36.465088,10.730107,Villa,average,2025-05-22,69,392000,619,172,0.2778675282714055,113,25,14.0,36099.3,58.31873990306947,209.8796511627907,0.1825525040387722,0.22123893805309736,0.56,5172426.51,369459.0364285714,55.0,0.2028985507246377
P0365,Cite El Wafa Urban Homes,Nabeul,Cite El Wafa,36.464815,10.730094,Apartment,strong,2025-05-21,84,244000,1159,538,0.4641932700603969,347,140,84.0,53467.61,46.13253666954271,99.38217472118959,0.2993960310612597,0.4034582132564842,0.6,19350737.12,230365.9180952381,0.0,1.0
P0357,Cite El Wafa Urban Living,Nabeul,Cite El Wafa,36.457578,10.744146,Apartment,strong,2025-03-16,163,228000,1486,671,0.4515477792732167,443,163,97.0,72057.01,48.490585464333776,107.38749627421758,0.2981157469717362,0.36794582392776526,0.5950920245398773,20879605.61,215253.66608247423,66.0,0.5950920245398773
P0369,Cite El Wafa Urban Park,Nabeul,Cite El Wafa,36.459026,10.739866,Apartment,average,2025-01-30,129,201000,1176,438,0.37244897959183676,277,74,44.0,61687.18,52.45508503401361,140.8383105022831,0.23554421768707484,0.26714801444043323,0.5945945945945946,8333182.47,189390.51068181818,85.0,0.34108527131782945
P0356,Cite El Wafa Urban Terraces,Nabeul,Cite El Wafa,36.453602,10.73398,Apartment,strong,2025-05-06,99,402000,1146,329,0.2870855148342059,308,104,55.0,61436.97,53.60992146596859,186.73851063829787,0.268760907504363,0.33766233766233766,0.5288461538461539,20817938.8,378507.9781818182,44.0,0.5555555555555556
P0368,Corniche Compact Homes,Nabeul,Corniche,36.451703,10.732174,Studio,weak,2025-01-04,102,186000,914,291,0.31838074398249455,152,27,4.0,58102.83,63.56983588621444,199.6660824742268,0.16630196936542668,0.17763157894736842,0.14814814814814814,706911.99,176727.9975,98.0,0.0392156862745098
P0354,Corniche Signature Gardens,Nabeul,Corniche,36.449398,10.736281,Villa,average,2025-01-31,95,371000,901,251,0.2785793562708102,203,57,25.0,52096.11,57.820321864594895,207.55422310756973,0.2253052164261931,0.28078817733990147,0.43859649122807015,8728074.82,349122.9928,70.0,0.2631578947368421
P0375,Corniche Signature Residences,Nabeul,Corniche,36.457064,10.733581,Villa,average,2025-04-05,48,269000,739,256,0.34641407307171856,149,44,28.0,42249.46,57.171123139377535,165.036953125,0.20162381596752368,0.2953020134228188,0.6363636363636364,7061224.2299999995,252186.57964285713,20.0,0.5833333333333334
P0396,Corniche Signature Suites,Nabeul,Corniche,36.45047,10.731019,Villa,strong,2025-02-05,100,743000,824,68,0.0825242718446602,123,20,8.0,62206.91,75.49382281553399,914.8075,0.14927184466019416,0.16260162601626016,0.4,5733185.93,716648.24125,92.0,0.08
P0341,Corniche Signature Terraces,Nabeul,Corniche,36.453977,10.731784,Villa,average,2025-01-26,63,343000,912,289,0.3168859649122807,204,57,20.0,52671.3,57.753618421052636,182.2536332179931,0.2236842105263158,0.27941176470588236,0.3508771929824561,6494879.78,324743.989,43.0,0.31746031746031744
P0388,Corniche Signature Terraces,Nabeul,Corniche,36.454025,10.729445,Villa,strong,2025-01-02,41,648000,870,96,0.1103448275862069,157,27,11.0,66832.55,76.81902298850575,696.1723958333333,0.18045977011494252,0.17197452229299362,0.4074074074074074,6680377.89,607307.0809090909,30.0,0.2682926829268293
P0346,Corniche Signature Vista,Nabeul,Corniche,36.447059,10.739823,Villa,average,2025-05-11,41,538000,496,68,0.13709677419354838,71,16,4.0,38144.97,76.9051814516129,560.9554411764706,0.1431451612903226,0.22535211267605634,0.25,2052982.45,513245.6125,37.0,0.0975609756097561
P0338,Corniche Urban Gardens,Nabeul,Corniche,36.449786,10.740451,Apartment,strong,2025-03-27,136,254000,1613,712,0.44141351518908867,461,171,110.0,77336.75,47.94590824550527,108.6190308988764,0.28580285182889026,0.37093275488069416,0.6432748538011696,26481875.27,240744.32063636364,26.0,0.8088235294117647
P0366,Corniche Urban Heights,Nabeul,Corniche,36.452914,10.745434,Apartment,weak,2025-03-27,166,310000,664,200,0.30120481927710846,113,16,4.0,45668.79,68.77829819277109,228.34395,0.17018072289156627,0.1415929203539823,0.25,1194822.74,298705.685,162.0,0.024096385542168676
P0361,Corniche Urban Homes,Nabeul,Corniche,36.453011,10.729724,Apartment,strong,2025-01-11,162,251000,2056,895,0.4353112840466926,559,208,122.0,95051.05,46.231055447470816,106.2022905027933,0.2718871595330739,0.37209302325581395,0.5865384615384616,28861808.419999998,236572.2001639344,40.0,0.7530864197530864
P0391,Corniche Urban Homes,Nabeul,Corniche,36.45265,10.737866,Apartment,average,2025-01-02,173,243000,1293,481,0.3720030935808198,312,107,46.0,70457.73,54.49167053364269,146.48176715176714,0.24129930394431554,0.34294871794871795,0.42990654205607476,10604518.75,230533.01630434784,127.0,0.2658959537572254
P0337,Corniche Urban Residences,Nabeul,Corniche,36.453164,10.741624,Apartment,weak,2025-04-18,224,312000,590,152,0.2576271186440678,82,22,13.0,41489.68,70.32149152542372,272.9584210526316,0.13898305084745763,0.2682926829268293,0.5909090909090909,3840013.67,295385.6669230769,211.0,0.05803571428571429
P0382,Corniche Urban Suites,Nabeul,Corniche,36.45145,10.728845,Apartment,weak,2025-01-29,113,265000,727,231,0.3177441540577717,130,27,5.0,52277.57,71.90862448418157,226.30982683982683,0.17881705639614856,0.2076923076923077,0.18518518518518517,1256408.25,251281.65,108.0,0.04424778761061947
P0378,Corniche Urban Terraces,Nabeul,Corniche,36.450122,10.735239,Apartment,average,2025-05-30,116,167000,723,276,0.3817427385892116,165,49,16.0,44515.58,61.570650069156294,161.28833333333333,0.22821576763485477,0.296969696969697,0.32653061224489793,2523056.37,157691.023125,100.0,0.13793103448275862
P0394,Dar Chaabane Business Gardens,Nabeul,Dar Chaabane,36.466219,10.697249,Office,weak,2025-04-08,102,212000,438,152,0.3470319634703196,67,21,8.0,29201.26,66.66954337899543,192.11355263157893,0.15296803652968036,0.31343283582089554,0.38095238095238093,1586023.22,198252.9025,94.0,0.0784313725490196
P0355,Dar Chaabane Business Living,Nabeul,Dar Chaabane,36.473106,10.699015,Office,average,2025-04-14,75,319000,632,211,0.3338607594936709,131,43,17.0,36223.8,57.31613924050633,171.67677725118486,0.20727848101265822,0.3282442748091603,0.3953488372093023,5074452.88,298497.2282352941,58.0,0.22666666666666666
P0363,Dar Chaabane Business Terraces,Nabeul,Dar Chaabane,36.468776,10.698557,Office,weak,2025-01-03,78,409000,474,91,0.19198312236286919,71,14,7.0,37267.76,78.62396624472574,409.5358241758242,0.14978902953586498,0.19718309859154928,0.5,2706709.65,386672.8071428571,71.0,0.08974358974358974
P0373,Dar Chaabane Compact Suites,Nabeul,Dar Chaabane,36.477187,10.701974,Studio,strong,2025-02-21,167,251000,1848,864,0.4675324675324675,558,209,129.0,82120.37,44.43742965367965,95.04672453703704,0.30194805194805197,0.37455197132616486,0.6172248803827751,30515860.07,236557.05480620154,38.0,0.7724550898203593
P0385,Dar Chaabane Signature Gardens,Nabeul,Dar Chaabane,36.473108,10.696862,Villa,average,2025-05-15,73,319000,671,233,0.3472429210134128,155,51,22.0,38375.3,57.19120715350224,164.7008583690987,0.23099850968703428,0.32903225806451614,0.43137254901960786,6616336.36,300742.5618181818,51.0,0.3013698630136986
P0339,Dar Chaabane Signature Homes,Nabeul,Dar Chaabane,36.463595,10.690249,Villa,weak,2025-02-17,53,331000,595,173,0.2907563025210084,102,19,9.0,38691.96,65.02850420168068,223.6529479768786,0.17142857142857143,0.18627450980392157,0.47368421052631576,2832286.95,314698.55000000005,44.0,0.16981132075471697
P0386,Dar Chaabane Signature Homes,Nabeul,Dar Chaabane,36.469305,10.695072,Villa,average,2025-03-06,74,446000,658,146,0.22188449848024316,122,24,10.0,44839.020000000004,68.14440729483283,307.1165753424658,0.18541033434650456,0.19672131147540983,0.4166666666666667,4199133.28,419913.32800000004,64.0,0.13513513513513514
P0352,Dar Chaabane Signature Living,Nabeul,Dar Chaabane,36.466905,10.703135,Villa,weak,2025-06-02,85,310000,413,120,0.29055690072639223,62,10,4.0,28212.41,68.3109200968523,235.10341666666667,0.15012106537530268,0.16129032258064516,0.4,1186660.83,296665.2075,81.0,0.047058823529411764
P0372,Dar Chaabane Signature Living,Nabeul,Dar Chaabane,36.468191,10.698601,Villa,strong,2025-04-23,82,584000,783,144,0.1839080459770115,164,48,20.0,51580.57,65.87556832694764,358.1984027777778,0.20945083014048532,0.2926829268292683,0.4166666666666667,11042832.26,552141.613,62.0,0.24390243902439024
P0367,Dar Chaabane Signature Terraces,Nabeul,Dar Chaabane,36.472435,10.697577,Villa,weak,2025-05-28,71,387000,353,88,0.24929178470254956,48,9,1.0,26938.85,76.31402266288951,306.1232954545454,0.1359773371104816,0.1875,0.1111111111111111,364809.74,364809.74,70.0,0.014084507042253521
P0349,Dar Chaabane Signature Vista,Nabeul,Dar Chaabane,36.470051,10.693106,Villa,strong,2025-03-12,54,413000,1185,357,0.3012658227848101,279,89,39.0,59050.27,49.83145147679325,165.406918767507,0.23544303797468355,0.31899641577060933,0.43820224719101125,15119370.68,387676.17128205125,15.0,0.7222222222222222
P0377,Dar Chaabane Urban Gardens,Nabeul,Dar Chaabane,36.46985,10.689793,Apartment,strong,2025-05-08,201,240000,1448,631,0.43577348066298344,440,153,84.0,65199.96,45.02759668508287,103.32798732171156,0.30386740331491713,0.3477272727272727,0.5490196078431373,19110409.98,227504.8807142857,117.0,0.417910447761194
P0350,Dar Chaabane Urban Park,Nabeul,Dar Chaabane,36.469203,10.694842,Apartment,average,2025-03-29,85,416000,874,223,0.2551487414187643,166,51,22.0,57968.16,66.32512585812357,259.9469058295964,0.18993135011441648,0.3072289156626506,0.43137254901960786,8589074.68,390412.4854545454,63.0,0.25882352941176473
P0374,Dar Chaabane Urban Park,Nabeul,Dar Chaabane,36.467771,10.692494,Apartment,weak,2025-02-14,103,280000,716,219,0.3058659217877095,103,20,7.0,50493.56,70.52173184357541,230.564200913242,0.14385474860335196,0.1941747572815534,0.35,1853381.4,264768.77142857143,96.0,0.06796116504854369
P0393,Dar Chaabane Urban Park,Nabeul,Dar Chaabane,36.461685,10.691271,Apartment,weak,2025-02-17,209,274000,783,253,0.3231162196679438,120,29,10.0,51898.07,66.28106002554279,205.1307114624506,0.1532567049808429,0.24166666666666667,0.3448275862068966,2579476.91,257947.69100000002,199.0,0.04784688995215311
P0392,Dar Chaabane Urban Terraces,Nabeul,Dar Chaabane,36.469808,10.688943,Apartment,average,2025-05-23,110,219000,850,304,0.35764705882352943,186,53,30.0,48629.44,57.211105882352946,159.96526315789475,0.2188235294117647,0.2849462365591398,0.5660377358490566,6160949.75,205364.99166666667,80.0,0.2727272727272727
P0389,Dar Chaabane Urban Vista,Nabeul,Dar Chaabane,36.470214,10.69392,Apartment,average,2025-01-04,205,303000,1272,478,0.3757861635220126,285,86,40.0,71024.08,55.836540880503144,148.58594142259415,0.2240566037735849,0.3017543859649123,0.46511627906976744,11407514.63,285187.86575,165.0,0.1951219512195122
P0359,Mrezga Compact Residences,Nabeul,Mrezga,36.449486,10.728248,Studio,average,2025-05-03,118,169000,1068,420,0.39325842696629215,252,76,38.0,55555.43,52.01819288389513,132.27483333333333,0.23595505617977527,0.30158730158730157,0.5,6058044.6,159422.22631578948,80.0,0.3220338983050847
P0370,Mrezga Compact Terraces,Nabeul,Mrezga,36.44369,10.737232,Studio,average,2025-01-23,123,156000,1244,443,0.35610932475884244,288,87,33.0,69161.65,55.59618167202572,156.1211060948081,0.2315112540192926,0.3020833333333333,0.3793103448275862,4874535.28,147713.1903030303,90.0,0.2682926829268293
P0358,Mrezga Signature Gardens,Nabeul,Mrezga,36.444127,10.732295,Villa,average,2025-05-17,92,605000,418,49,0.11722488038277512,57,13,0.0,35733.75,85.48744019138756,729.2602040816327,0.13636363636363635,0.22807017543859648,0.0,0.0,605000.0,92.0,0.0
P0390,Mrezga Signature Gardens,Nabeul,Mrezga,36.446634,10.723586,Villa,strong,2025-04-10,56,484000,825,188,0.22787878787878788,172,40,16.0,50921.32,61.72281212121212,270.858085106383,0.2084848484848485,0.23255813953488372,0.4,7318748.95,457421.809375,40.0,0.2857142857142857
P0351,Mrezga Signature Homes,Nabeul,Mrezga,36.448829,10.732821,Villa,average,2025-04-14,89,540000,582,106,0.18213058419243985,103,22,4.0,43419.409999999996,74.6037972508591,409.61707547169806,0.17697594501718214,0.21359223300970873,0.18181818181818182,2016816.44,504204.11,85.0,0.0449438202247191
P0387,Mrezga Signature Park,Nabeul,Mrezga,36.438747,10.735294,Villa,weak,2025-05-14,76,187000,364,111,0.30494505494505497,62,12,6.0,25294.47,69.4903021978022,227.8781081081081,0.17032967032967034,0.1935483870967742,0.5,1072182.47,178697.07833333334,70.0,0.07894736842105263
P0395,Mrezga Signature Park,Nabeul,Mrezga,36.446577,10.724957,Villa,average,2025-01-06,38,538000,729,107,0.1467764060356653,129,24,5.0,53748.27,73.72876543209875,502.32028037383174,0.17695473251028807,0.18604651162790697,0.20833333333333334,2505553.79,501110.75800000003,33.0,0.13157894736842105
P0344,Mrezga Signature Terraces,Nabeul,Mrezga,36.442383,10.732946,Villa,weak,2025-05-29,68,355000,414,114,0.2753623188405797,55,11,2.0,27309.95,65.96606280193237,239.5609649122807,0.13285024154589373,0.2,0.18181818181818182,647941.56,323970.78,66.0,0.029411764705882353
P0342,Mrezga Urban Homes,Nabeul,Mrezga,36.44982,10.72754,Apartment,weak,2025-03-18,176,242000,655,211,0.32213740458015266,110,30,7.0,42430.8,64.77984732824427,201.09383886255927,0.16793893129770993,0.2727272727272727,0.23333333333333334,1590083.79,227154.82714285716,169.0,0.03977272727272727
P0340,Mrezga Urban Living,Nabeul,Mrezga,36.446531,10.73871,Apartment,strong,2025-05-01,83,432000,1228,365,0.2972312703583062,274,74,44.0,62105.72,50.57469055374593,170.15265753424657,0.22312703583061888,0.27007299270072993,0.5945945945945946,17862555.39,405967.16795454547,39.0,0.5301204819277109
P0380,Mrezga Urban Living,Nabeul,Mrezga,36.4477,10.728541,Apartment,weak,2025-01-26,112,202000,835,269,0.3221556886227545,148,30,10.0,57519.09,68.88513772455089,213.8256133828996,0.17724550898203592,0.20270270270270271,0.3333333333333333,1908457.7,190845.77,102.0,0.08928571428571429
P0364,Mrezga Urban Park,Nabeul,Mrezga,36.444609,10.737368,Apartment,average,2025-04-21,193,267000,951,360,0.3785488958990536,204,57,29.0,51062.07,53.69302839116719,141.83908333333332,0.21451104100946372,0.27941176470588236,0.5087719298245614,7335793.05,252958.38103448277,164.0,0.15025906735751296
P0353,Mrezga Urban Vista,Nabeul,Mrezga,36.449226,10.730148,Apartment,strong,2025-02-07,99,316000,1583,652,0.4118761844598863,428,150,84.0,79534.74,50.2430448515477,121.98579754601228,0.2703727100442198,0.35046728971962615,0.56,25141263.28,299300.75333333336,15.0,0.8484848484848485
P0360,Mrezga Urban Vista,Nabeul,Mrezga,36.441598,10.739101,Apartment,strong,2025-04-26,199,375000,1340,447,0.3335820895522388,341,95,57.0,64747.91,48.319335820895525,144.8499105145414,0.2544776119402985,0.2785923753665689,0.6,20161388.33,353708.5671929824,142.0,0.2864321608040201
P0532,Centre Ville Business Living,Sfax,Centre Ville,34.741668,10.760149,Office,strong,2025-05-01,84,180000,534,211,0.3951310861423221,148,46,29.0,36300.85,67.97911985018726,172.04194312796207,0.27715355805243447,0.3108108108108108,0.6304347826086957,4945746.82,170542.99379310347,55.0,0.34523809523809523
P0453,Centre Ville Business Vista,Sfax,Centre Ville,34.739059,10.75859,Office,average,2025-03-28,55,267000,352,92,0.26136363636363635,48,11,6.0,31796.48,90.33090909090909,345.61391304347825,0.13636363636363635,0.22916666666666666,0.5454545454545454,1509270.6,251545.1,49.0,0.10909090909090909
P0494,Centre Ville Compact Gardens,Sfax,Centre Ville,34.735459,10.762598,Studio,weak,2025-03-01,62,165000,400,115,0.2875,62,11,2.0,41342.16,103.3554,359.4970434782609,0.155,0.1774193548387097,0.18181818181818182,306358.4,153179.2,60.0,0.03225806451612903
P0522,Centre Ville Compact Park,Sfax,Centre Ville,34.740755,10.762211,Studio,strong,2025-05-04,104,204000,716,324,0.45251396648044695,190,68,38.0,54040.99,75.47624301675977,166.79317901234566,0.26536312849162014,0.35789473684210527,0.5588235294117647,7304928.3100000005,192234.9555263158,66.0,0.36538461538461536
P0540,Centre Ville Compact Suites,Sfax,Centre Ville,34.743013,10.760515,Studio,average,2025-03-15,71,161000,583,209,0.3584905660377358,116,30,18.0,50748.26,87.04675814751286,242.81464114832536,0.19897084048027444,0.25862068965517243,0.6,2743672.23,152426.235,53.0,0.2535211267605634
P0478,Centre Ville Urban Gardens,Sfax,Centre Ville,34.737705,10.754748,Apartment,average,2025-03-31,123,194000,557,194,0.348294434470377,97,18,4.0,46672.31,83.79229802513464,240.5789175257732,0.1741472172351885,0.18556701030927836,0.2222222222222222,726735.55,181683.8875,119.0,0.032520325203252036
P0481,Centre Ville Urban Gardens,Sfax,Centre Ville,34.743112,10.765078,Apartment,strong,2025-01-30,183,185000,1000,394,0.394,257,78,43.0,70335.11,70.33511,178.5155076142132,0.257,0.3035019455252918,0.5512820512820513,7566066.22,175955.02837209302,140.0,0.23497267759562843
P0496,Centre Ville Urban Gardens,Sfax,Centre Ville,34.737158,10.760767,Apartment,strong,2025-06-10,80,209000,643,268,0.416796267496112,163,59,29.0,43436.1,67.55225505443235,162.075,0.2534992223950233,0.3619631901840491,0.4915254237288136,5744723.12,198093.9006896552,51.0,0.3625
P0458,Centre Ville Urban Heights,Sfax,Centre Ville,34.742743,10.754593,Apartment,strong,2025-01-24,99,313000,983,252,0.25635808748728384,199,49,25.0,75034.76,76.33241098677517,297.7569841269841,0.20244150559511698,0.24623115577889448,0.5102040816326531,7380437.18,295217.4872,74.0,0.25252525252525254
P0461,Centre Ville Urban Heights,Sfax,Centre Ville,34.742702,10.765825,Apartment,average,2025-02-24,139,260000,685,176,0.2569343065693431,134,29,8.0,59325.12,86.60601459854016,337.07454545454544,0.19562043795620437,0.21641791044776118,0.27586206896551724,1964126.73,245515.84125,131.0,0.05755395683453238
P0523,Centre Ville Urban Heights,Sfax,Centre Ville,34.740407,10.758317,Apartment,average,2025-04-10,172,284000,526,118,0.22433460076045628,84,23,10.0,47808.81,90.89127376425856,405.15940677966097,0.1596958174904943,0.27380952380952384,0.43478260869565216,2632657.98,263265.798,162.0,0.05813953488372093
P0464,Centre Ville Urban Living,Sfax,Centre Ville,34.745139,10.75813,Apartment,weak,2025-05-12,138,214000,280,86,0.30714285714285716,38,9,1.0,31761.31,113.43325,369.3175581395349,0.1357142857142857,0.23684210526315788,0.1111111111111111,200124.34,200124.34,137.0,0.007246376811594203
P0495,Centre Ville Urban Living,Sfax,Centre Ville,34.736591,10.758579,Apartment,strong,2025-06-05,180,165000,651,276,0.423963133640553,167,65,30.0,46224.24,71.00497695852535,167.4791304347826,0.2565284178187404,0.38922155688622756,0.46153846153846156,4676126.87,155870.89566666668,150.0,0.16666666666666666
P0450,Centre Ville Urban Park,Sfax,Centre Ville,34.735775,10.767879,Apartment,average,2025-04-30,208,154000,504,172,0.3412698412698413,89,23,8.0,43029.48,85.37595238095238,250.17139534883722,0.1765873015873016,0.25842696629213485,0.34782608695652173,1172734.81,146591.85125,200.0,0.038461538461538464
P0457,Centre Ville Urban Park,Sfax,Centre Ville,34.742444,10.759047,Apartment,strong,2025-05-20,153,266000,681,243,0.3568281938325991,183,48,25.0,49663.0,72.92657856093979,204.3744855967078,0.2687224669603524,0.26229508196721313,0.5208333333333334,6276033.84,251041.3536,128.0,0.16339869281045752
P0448,Centre Ville Urban Residences,Sfax,Centre Ville,34.742693,10.760449,Apartment,weak,2025-03-12,196,133000,417,120,0.28776978417266186,70,10,1.0,41207.46,98.8188489208633,343.39549999999997,0.16786570743405277,0.14285714285714285,0.1,125261.89,125261.89,195.0,0.00510204081632653
P0503,Centre Ville Urban Residences,Sfax,Centre Ville,34.747923,10.755679,Apartment,strong,2025-03-18,101,322000,789,228,0.2889733840304182,179,52,22.0,62982.73,79.82602027883397,276.2400438596491,0.22686945500633712,0.2905027932960894,0.4230769230769231,6794947.97,308861.27136363636,79.0,0.21782178217821782
P0518,Centre Ville Urban Residences,Sfax,Centre Ville,34.742472,10.759948,Apartment,strong,2025-01-21,164,231000,1053,424,0.402659069325736,278,88,43.0,74331.49,70.5902089268756,175.31011792452833,0.26400759734093066,0.31654676258992803,0.48863636363636365,9398894.94,218578.95209302325,121.0,0.2621951219512195
P0524,Centre Ville Urban Suites,Sfax,Centre Ville,34.733859,10.752766,Apartment,weak,2025-02-25,174,134000,423,114,0.2695035460992908,61,15,8.0,43240.159999999996,102.22260047281323,379.299649122807,0.14420803782505912,0.2459016393442623,0.5333333333333333,1013272.09,126659.01125,166.0,0.04597701149425287
P0498,Centre Ville Urban Terraces,Sfax,Centre Ville,34.733949,10.761972,Apartment,average,2025-05-01,196,318000,449,83,0.18485523385300667,64,12,3.0,45803.67,102.0126280623608,551.8514457831325,0.14253897550111358,0.1875,0.25,904380.8,301460.26666666666,193.0,0.015306122448979591
P0502,Centre Ville Urban Terraces,Sfax,Centre Ville,34.736238,10.761998,Apartment,average,2025-06-07,159,233000,415,146,0.35180722891566263,86,19,5.0,36595.76,88.18255421686747,250.65589041095893,0.20722891566265061,0.22093023255813954,0.2631578947368421,1092157.05,218431.41,154.0,0.031446540880503145
P0537,Centre Ville Urban Terraces,Sfax,Centre Ville,34.742479,10.765932,Apartment,strong,2025-01-07,77,212000,1094,457,0.41773308957952465,266,82,35.0,74711.78,68.29230347349177,163.48310722100655,0.24314442413162707,0.3082706766917293,0.4268292682926829,6985750.6899999995,199592.87685714284,42.0,0.45454545454545453
P0460,Centre Ville Urban Vista,Sfax,Centre Ville,34.747605,10.756872,Apartment,weak,2025-03-13,89,233000,399,101,0.2531328320802005,50,8,2.0,42765.13,107.18077694235588,423.41712871287126,0.12531328320802004,0.16,0.25,433663.94999999995,216831.97499999998,87.0,0.02247191011235955
P0485,Centre Ville Urban Vista,Sfax,Centre Ville,34.740305,10.763462,Apartment,strong,2025-04-08,134,305000,657,187,0.2846270928462709,139,33,18.0,54042.659999999996,82.25671232876712,288.9981818181818,0.2115677321156773,0.23741007194244604,0.5454545454545454,5189054.57,288280.8094444445,116.0,0.13432835820895522
P0468,El Ain Business Gardens,Sfax,El Ain,34.751031,10.693406,Office,average,2025-04-12,81,287000,297,81,0.2727272727272727,52,12,2.0,30783.18,103.64707070707071,380.03925925925927,0.1750841750841751,0.23076923076923078,0.16666666666666666,524109.2,262054.6,79.0,0.024691358024691357
P0509,El Ain Business Heights,Sfax,El Ain,34.743308,10.690292,Office,average,2025-05-05,41,288000,294,72,0.24489795918367346,46,6,3.0,28115.13,95.62969387755102,390.4879166666667,0.1564625850340136,0.13043478260869565,0.5,798437.25,266145.75,38.0,0.07317073170731707
P0528,El Ain Business Heights,Sfax,El Ain,34.754364,10.697115,Office,average,2025-04-30,43,205000,371,135,0.3638814016172507,73,18,6.0,29326.96,79.04840970350403,217.23674074074074,0.1967654986522911,0.2465753424657534,0.3333333333333333,1159342.42,193223.73666666666,37.0,0.13953488372093023
P0530,El Ain Business Homes,Sfax,El Ain,34.748029,10.694903,Office,weak,2025-04-27,89,207000,249,73,0.2931726907630522,46,9,2.0,25195.67,101.18742971887549,345.1461643835616,0.18473895582329317,0.1956521739130435,0.2222222222222222,393302.78,196651.39,87.0,0.02247191011235955
P0490,El Ain Compact Heights,Sfax,El Ain,34.749629,10.700085,Studio,average,2025-05-29,101,120000,474,171,0.36075949367088606,99,24,10.0,39687.96,83.72987341772152,232.09333333333333,0.2088607594936709,0.24242424242424243,0.4166666666666667,1136745.67,113674.567,91.0,0.09900990099009901
P0463,El Ain Signature Gardens,Sfax,El Ain,34.755707,10.700484,Villa,average,2025-06-01,58,407000,246,24,0.0975609756097561,34,7,2.0,26405.11,107.33784552845529,1100.2129166666666,0.13821138211382114,0.20588235294117646,0.2857142857142857,770380.24,385190.12,56.0,0.034482758620689655
P0492,El Ain Signature Gardens,Sfax,El Ain,34.740339,10.696808,Villa,average,2025-02-24,87,193000,506,185,0.36561264822134387,119,28,7.0,44144.95,87.24298418972332,238.62135135135134,0.23517786561264822,0.23529411764705882,0.25,1283039.41,183291.34428571427,80.0,0.08045977011494253
P0470,El Ain Signature Homes,Sfax,El Ain,34.754229,10.696252,Villa,strong,2025-02-21,30,318000,631,164,0.25990491283676703,132,43,21.0,52911.83,83.85393026941364,322.63310975609755,0.2091917591125198,0.32575757575757575,0.4883720930232558,6252892.47,297756.78428571427,9.0,0.7
P0483,El Ain Signature Vista,Sfax,El Ain,34.751463,10.703959,Villa,average,2025-05-26,68,221000,323,101,0.3126934984520124,81,16,8.0,27811.07,86.10238390092879,275.35712871287126,0.25077399380804954,0.19753086419753085,0.5,1687667.95,210958.49375,60.0,0.11764705882352941
P0449,El Ain Urban Gardens,Sfax,El Ain,34.750048,10.699881,Apartment,strong,2025-04-16,147,229000,775,286,0.3690322580645161,222,68,36.0,57187.11,73.78981935483871,199.95493006993007,0.2864516129032258,0.3063063063063063,0.5294117647058824,7813581.47,217043.9297222222,111.0,0.24489795918367346
P0469,El Ain Urban Gardens,Sfax,El Ain,34.754374,10.699602,Apartment,average,2025-04-24,117,169000,483,164,0.33954451345755693,111,30,14.0,43788.05,90.65848861283645,267.0003048780488,0.22981366459627328,0.2702702702702703,0.4666666666666667,2279800.27,162842.87642857144,103.0,0.11965811965811966
P0534,El Ain Urban Gardens,Sfax,El Ain,34.755711,10.693597,Apartment,weak,2025-04-09,107,124000,360,118,0.3277777777777778,47,12,4.0,36880.16,102.4448888888889,312.54372881355937,0.13055555555555556,0.2553191489361702,0.3333333333333333,452980.69,113245.1725,103.0,0.037383177570093455
P0511,El Ain Urban Heights,Sfax,El Ain,34.750672,10.701874,Apartment,strong,2025-04-02,136,263000,858,301,0.3508158508158508,203,55,24.0,63815.33,74.37684149184149,212.0110631229236,0.2365967365967366,0.270935960591133,0.43636363636363634,6026360.68,251098.36166666666,112.0,0.17647058823529413
P0508,El Ain Urban Living,Sfax,El Ain,34.752846,10.698404,Apartment,average,2025-05-16,86,119000,502,186,0.3705179282868526,98,25,9.0,39148.68,77.98541832669322,210.47677419354838,0.1952191235059761,0.25510204081632654,0.36,1000831.0,111203.44444444444,77.0,0.10465116279069768
P0477,El Ain Urban Park,Sfax,El Ain,34.751053,10.70241,Apartment,average,2025-05-21,169,186000,466,155,0.33261802575107297,95,28,18.0,37196.8,79.82145922746781,239.9793548387097,0.20386266094420602,0.29473684210526313,0.6428571428571429,3177352.86,176519.60333333333,151.0,0.10650887573964497
P0479,El Ain Urban Park,Sfax,El Ain,34.750845,10.697955,Apartment,strong,2025-04-08,163,213000,790,334,0.42278481012658226,182,54,30.0,57005.75,72.15917721518987,170.67589820359282,0.23037974683544304,0.2967032967032967,0.5555555555555556,6035612.65,201187.08833333335,133.0,0.18404907975460122
P0491,El Ain Urban Park,Sfax,El Ain,34.744825,10.699597,Apartment,average,2025-01-27,110,199000,673,245,0.3640416047548291,152,34,12.0,57752.04,85.81283803863299,235.72261224489796,0.22585438335809807,0.2236842105263158,0.35294117647058826,2261442.79,188453.56583333333,98.0,0.10909090909090909
P0533,El Ain Urban Residences,Sfax,El Ain,34.752017,10.700575,Apartment,average,2025-04-30,136,292000,439,93,0.21184510250569477,84,18,6.0,43351.89,98.75145785876992,466.14935483870966,0.19134396355353075,0.21428571428571427,0.3333333333333333,1674939.2,279156.5333333333,130.0,0.04411764705882353
P0451,El Ain Urban Suites,Sfax,El Ain,34.754234,10.702674,Apartment,strong,2025-02-02,118,253000,1011,352,0.34817012858555885,231,75,42.0,72249.35,71.46325420375867,205.25383522727273,0.228486646884273,0.3246753246753247,0.56,10034237.07,238910.40642857144,76.0,0.3559322033898305
P0474,El Ain Urban Suites,Sfax,El Ain,34.756513,10.69685,Apartment,strong,2025-02-03,98,298000,927,256,0.2761596548004315,201,55,29.0,73084.94,78.8402804746494,285.488046875,0.2168284789644013,0.2736318407960199,0.5272727272727272,8160315.83,281390.20103448274,69.0,0.29591836734693877
P0506,El Ain Urban Suites,Sfax,El Ain,34.758968,10.700981,Apartment,strong,2025-03-13,173,342000,725,171,0.23586206896551723,147,39,18.0,65752.7,90.69337931034482,384.51871345029235,0.20275862068965517,0.2653061224489796,0.46153846153846156,5802741.08,322374.50444444444,155.0,0.10404624277456648
P0513,Route Gremda Business Homes,Sfax,Route Gremda,34.766632,10.692701,Office,average,2025-01-18,103,214000,488,162,0.3319672131147541,102,31,17.0,43581.58,89.30651639344262,269.02209876543213,0.20901639344262296,0.30392156862745096,0.5483870967741935,3469325.19,204077.95235294118,86.0,0.1650485436893204
P0482,Route Gremda Business Living,Sfax,Route Gremda,34.76918,10.696489,Office,average,2025-01-21,111,149000,466,155,0.33261802575107297,95,20,10.0,39106.49,83.91950643776823,252.29993548387097,0.20386266094420602,0.21052631578947367,0.5,1385368.98,138536.898,101.0,0.09009009009009009
P0531,Route Gremda Business Suites,Sfax,Route Gremda,34.770177,10.69244,Office,average,2025-03-28,54,165000,432,154,0.35648148148148145,89,29,12.0,34304.35,79.40821759259259,222.75551948051947,0.20601851851851852,0.3258426966292135,0.41379310344827586,1865616.94,155468.07833333334,42.0,0.2222222222222222
P0497,Route Gremda Business Vista,Sfax,Route Gremda,34.781268,10.690969,Office,strong,2025-02-06,89,228000,701,295,0.42082738944365194,182,63,33.0,48214.24,68.77922967189728,163.43810169491525,0.25962910128388017,0.34615384615384615,0.5238095238095238,7114535.37,215591.98090909093,56.0,0.3707865168539326
P0456,Route Gremda Signature Gardens,Sfax,Route Gremda,34.776706,10.685514,Villa,average,2025-06-01,86,323000,322,73,0.2267080745341615,45,7,3.0,30525.02,94.79819875776397,418.1509589041096,0.13975155279503104,0.15555555555555556,0.42857142857142855,898649.62,299549.87333333335,83.0,0.03488372093023256
P0535,Route Gremda Signature Gardens,Sfax,Route Gremda,34.772991,10.704289,Villa,weak,2025-05-12,49,211000,246,78,0.3170731707317073,38,7,2.0,24723.93,100.50378048780487,316.97346153846155,0.15447154471544716,0.18421052631578946,0.2857142857142857,404711.89,202355.945,47.0,0.04081632653061224
P0487,Route Gremda Signature Residences,Sfax,Route Gremda,34.767135,10.691798,Villa,strong,2025-03-05,89,531000,437,42,0.09610983981693363,65,11,2.0,51578.77,118.02922196796338,1228.0659523809522,0.14874141876430205,0.16923076923076924,0.18181818181818182,966289.79,483144.895,87.0,0.02247191011235955
P0505,Route Gremda Signature Residences,Sfax,Route Gremda,34.768692,10.698437,Villa,average,2025-02-15,80,204000,500,165,0.33,97,22,12.0,41091.74,82.18348,249.04084848484848,0.194,0.2268041237113402,0.5454545454545454,2310595.81,192549.65083333335,68.0,0.15
P0512,Route Gremda Signature Residences,Sfax,Route Gremda,34.761156,10.696495,Villa,average,2025-02-04,32,371000,399,60,0.15037593984962405,47,4,3.0,43999.58,110.2746365914787,733.3263333333333,0.11779448621553884,0.0851063829787234,0.75,1058175.88,352725.2933333333,29.0,0.09375
P0529,Route Gremda Signature Residences,Sfax,Route Gremda,34.777707,10.697099,Villa,average,2025-04-06,31,225000,416,149,0.3581730769230769,86,20,9.0,34833.59,83.73459134615383,233.7824832214765,0.20673076923076922,0.23255813953488372,0.45,1905678.09,211742.01,22.0,0.2903225806451613
P0539,Route Gremda Signature Suites,Sfax,Route Gremda,34.772564,10.694233,Villa,average,2025-05-21,33,352000,291,41,0.140893470790378,36,3,0.0,31960.95,109.83144329896908,779.5353658536585,0.12371134020618557,0.08333333333333333,0.0,0.0,352000.0,33.0,0.0
P0510,Route Gremda Signature Terraces,Sfax,Route Gremda,34.773256,10.698121,Villa,average,2025-01-03,85,406000,450,44,0.09777777777777778,58,16,3.0,49541.92,110.09315555555555,1125.9527272727273,0.1288888888888889,0.27586206896551724,0.1875,1182115.29,394038.43,82.0,0.03529411764705882
P0446,Route Gremda Signature Vista,Sfax,Route Gremda,34.763275,10.691845,Villa,average,2025-05-13,53,185000,382,126,0.3298429319371728,81,25,13.0,32245.94,84.4134554973822,255.92015873015873,0.21204188481675393,0.30864197530864196,0.52,2253110.59,173316.1992307692,40.0,0.24528301886792453
P0536,Route Gremda Urban Gardens,Sfax,Route Gremda,34.768095,10.699408,Apartment,weak,2025-02-26,154,235000,413,102,0.2469733656174334,67,8,0.0,43085.82,104.32401937046005,422.41,0.162227602905569,0.11940298507462686,0.0,0.0,235000.0,154.0,0.0
P0454,Route Gremda Urban Heights,Sfax,Route Gremda,34.773644,10.69899,Apartment,strong,2025-05-15,213,290000,662,200,0.3021148036253776,132,31,10.0,53026.97,80.10116314199396,265.13485000000003,0.19939577039274925,0.23484848484848486,0.3225806451612903,2735438.31,273543.831,203.0,0.046948356807511735
P0467,Route Gremda Urban Heights,Sfax,Route Gremda,34.769346,10.688414,Apartment,average,2025-03-06,85,231000,559,163,0.29159212880143115,109,18,7.0,49013.12,87.68,300.69398773006134,0.19499105545617174,0.1651376146788991,0.3888888888888889,1543989.18,220569.88285714286,78.0,0.08235294117647059
P0475,Route Gremda Urban Heights,Sfax,Route Gremda,34.769769,10.698227,Apartment,weak,2025-04-10,164,161000,351,98,0.2792022792022792,68,12,2.0,36761.7,104.73418803418802,375.119387755102,0.19373219373219372,0.17647058823529413,0.16666666666666666,298074.19,149037.095,162.0,0.012195121951219513
P0459,Route Gremda Urban Living,Sfax,Route Gremda,34.769139,10.690423,Apartment,average,2025-04-17,142,184000,517,204,0.3945841392649903,118,37,15.0,44577.98,86.22433268858802,218.51950980392158,0.22823984526112184,0.3135593220338983,0.40540540540540543,2627792.63,175186.17533333332,127.0,0.1056338028169014
P0489,Route Gremda Urban Living,Sfax,Route Gremda,34.773259,10.699429,Apartment,average,2025-02-08,175,119000,662,220,0.3323262839879154,131,44,21.0,55810.19,84.30542296072508,253.68268181818183,0.19788519637462235,0.33587786259541985,0.4772727272727273,2368280.1,112775.24285714286,154.0,0.12
P0519,Route Gremda Urban Living,Sfax,Route Gremda,34.777577,10.699865,Apartment,average,2025-04-21,198,244000,553,165,0.298372513562387,103,23,15.0,47315.95,85.5622965641953,286.7633333333333,0.18625678119349007,0.22330097087378642,0.6521739130434783,3420029.89,228001.9926666667,183.0,0.07575757575757576
P0525,Route Gremda Urban Living,Sfax,Route Gremda,34.771686,10.692582,Apartment,average,2025-02-27,152,242000,630,203,0.32222222222222224,131,28,12.0,55543.77,88.16471428571428,273.6146305418719,0.20793650793650795,0.21374045801526717,0.42857142857142855,2712044.4,226003.69999999998,140.0,0.07894736842105263
P0472,Route Gremda Urban Residences,Sfax,Route Gremda,34.771668,10.684424,Apartment,average,2025-03-04,205,171000,616,226,0.36688311688311687,127,27,10.0,50957.89,82.7238474025974,225.47738938053098,0.20616883116883117,0.2125984251968504,0.37037037037037035,1597117.58,159711.758,195.0,0.04878048780487805
P0486,Route Gremda Urban Residences,Sfax,Route Gremda,34.771617,10.694793,Apartment,weak,2025-01-03,150,154000,500,151,0.302,82,23,10.0,51224.01,102.44802,339.23185430463576,0.164,0.2804878048780488,0.43478260869565216,1463132.87,146313.287,140.0,0.06666666666666667
P0499,Route Gremda Urban Residences,Sfax,Route Gremda,34.765173,10.690204,Apartment,average,2025-03-28,120,257000,563,153,0.27175843694493784,106,31,12.0,51467.58,91.41666074600356,336.38941176470587,0.1882770870337478,0.29245283018867924,0.3870967741935484,2917482.64,243123.55333333334,108.0,0.1
P0507,Route Gremda Urban Suites,Sfax,Route Gremda,34.772802,10.685635,Apartment,strong,2025-03-15,130,301000,801,207,0.25842696629213485,181,45,18.0,65030.36,81.18646691635456,314.1563285024155,0.22596754057428214,0.24861878453038674,0.4,5164053.17,286891.84277777775,112.0,0.13846153846153847
P0455,Route Gremda Urban Terraces,Sfax,Route Gremda,34.771196,10.682996,Apartment,average,2025-05-26,105,220000,425,147,0.3458823529411765,79,24,17.0,38060.32,89.55369411764705,258.9137414965986,0.18588235294117647,0.3037974683544304,0.7083333333333334,3510238.5,206484.61764705883,88.0,0.1619047619047619
P0473,Route Gremda Urban Terraces,Sfax,Route Gremda,34.770986,10.695475,Apartment,average,2025-05-15,104,120000,453,184,0.40618101545253865,102,28,15.0,40029.75,88.3658940397351,217.55298913043478,0.2251655629139073,0.27450980392156865,0.5357142857142857,1689549.53,112636.63533333334,89.0,0.14423076923076922
P0471,Route Gremda Urban Vista,Sfax,Route Gremda,34.769106,10.693999,Apartment,average,2025-01-14,168,280000,596,150,0.2516778523489933,123,26,11.0,59431.29,99.71692953020134,396.2086,0.2063758389261745,0.21138211382113822,0.4230769230769231,2891776.38,262888.7618181818,157.0,0.06547619047619048
P0501,Route Gremda Urban Vista,Sfax,Route Gremda,34.767615,10.690368,Apartment,average,2025-01-10,179,241000,742,216,0.29110512129380056,146,36,19.0,62946.23,84.83319407008086,291.4177314814815,0.1967654986522911,0.2465753424657534,0.5277777777777778,4280384.5200000005,225283.3957894737,160.0,0.10614525139664804
P0488,Sakiet Ezzit Business Gardens,Sfax,Sakiet Ezzit,34.801169,10.72629,Office,weak,2025-03-07,88,210000,317,93,0.29337539432176657,53,8,4.0,29905.04,94.33766561514196,321.5595698924731,0.167192429022082,0.1509433962264151,0.5,782383.89,195595.9725,84.0,0.045454545454545456
P0480,Sakiet Ezzit Business Vista,Sfax,Sakiet Ezzit,34.801463,10.723532,Office,strong,2025-04-22,65,408000,380,72,0.18947368421052632,60,12,6.0,34538.659999999996,90.89121052631577,479.70361111111106,0.15789473684210525,0.2,0.5,2303097.86,383849.6433333333,59.0,0.09230769230769231
P0484,Sakiet Ezzit Compact Park,Sfax,Sakiet Ezzit,34.791902,10.722823,Studio,weak,2025-02-26,91,132000,422,135,0.31990521327014215,64,9,1.0,44119.83,104.54936018957346,326.8135555555556,0.15165876777251186,0.140625,0.1111111111111111,121730.37,121730.37,90.0,0.01098901098901099
P0516,Sakiet Ezzit Signature Gardens,Sfax,Sakiet Ezzit,34.799826,10.724693,Villa,average,2025-01-24,71,184000,590,194,0.3288135593220339,122,28,9.0,46746.2,79.2308474576271,240.95979381443297,0.20677966101694914,0.22950819672131148,0.32142857142857145,1551561.51,172395.72333333333,62.0,0.1267605633802817
P0515,Sakiet Ezzit Signature Park,Sfax,Sakiet Ezzit,34.806595,10.725537,Villa,weak,2025-02-02,65,220000,320,105,0.328125,57,16,5.0,32945.17,102.95365625,313.7635238095238,0.178125,0.2807017543859649,0.3125,1058869.45,211773.88999999998,60.0,0.07692307692307693
P0462,Sakiet Ezzit Signature Terraces,Sfax,Sakiet Ezzit,34.80277,10.730545,Villa,strong,2025-03-29,46,401000,477,92,0.1928721174004193,75,22,7.0,49471.47,103.71377358490567,537.7333695652175,0.15723270440251572,0.29333333333333333,0.3181818181818182,2664804.2800000003,380686.3257142858,39.0,0.15217391304347827
P0452,Sakiet Ezzit Urban Gardens,Sfax,Sakiet Ezzit,34.795569,10.73431,Apartment,average,2025-05-28,90,259000,458,135,0.29475982532751094,91,21,5.0,38725.33,84.55312227074236,286.8542962962963,0.19868995633187772,0.23076923076923078,0.23809523809523808,1218733.8,243746.76,85.0,0.05555555555555555
P0466,Sakiet Ezzit Urban Gardens,Sfax,Sakiet Ezzit,34.799777,10.733572,Apartment,average,2025-04-24,192,244000,469,107,0.2281449893390192,85,20,10.0,44303.71,94.46420042643923,414.0533644859813,0.1812366737739872,0.23529411764705882,0.5,2294211.69,229421.169,182.0,0.052083333333333336
P0514,Sakiet Ezzit Urban Gardens,Sfax,Sakiet Ezzit,34.805402,10.729706,Apartment,average,2025-02-14,145,230000,695,229,0.3294964028776978,154,37,13.0,59870.340000000004,86.14437410071943,261.44253275109173,0.22158273381294963,0.24025974025974026,0.35135135135135137,2826294.27,217407.25153846154,132.0,0.0896551724137931
P0520,Sakiet Ezzit Urban Gardens,Sfax,Sakiet Ezzit,34.793118,10.72963,Apartment,strong,2025-04-20,192,184000,902,372,0.4124168514412417,216,82,34.0,58656.56,65.02944567627495,157.6789247311828,0.2394678492239468,0.37962962962962965,0.4146341463414634,5907158.8,173739.96470588236,158.0,0.17708333333333334
P0526,Sakiet Ezzit Urban Gardens,Sfax,Sakiet Ezzit,34.805389,10.73172,Apartment,strong,2025-03-27,130,275000,782,248,0.3171355498721228,181,51,22.0,60866.3,77.8341432225064,245.42862903225807,0.23145780051150894,0.281767955801105,0.43137254901960786,5667492.11,257613.27772727274,108.0,0.16923076923076924
P0538,Sakiet Ezzit Urban Gardens,Sfax,Sakiet Ezzit,34.79981,10.725843,Apartment,weak,2025-06-10,141,182000,304,98,0.3223684210526316,50,15,4.0,27868.86,91.67388157894737,284.3761224489796,0.16447368421052633,0.3,0.26666666666666666,686592.52,171648.13,137.0,0.028368794326241134
